{
  "5A8": {
    "icao": "5A8",
    "iata": "WKK",
    "name": "Aleknagik / New Airport",
    "city": "Aleknagik",
    "country": "US",
    "lat": 59.2826004028,
    "lon": -158.617996216,
    "elevation": 66,
    "type": "medium_airport"
  },
  "AGGH": {
    "icao": "AGGH",
    "iata": "HIR",
    "name": "Honiara International Airport",
    "city": "Honiara",
    "country": "SB",
    "lat": -9.428,
    "lon": 160.054993,
    "elevation": 28,
    "type": "large_airport"
  },
  "AGGM": {
    "icao": "AGGM",
    "iata": "MUA",
    "name": "Munda Airport",
    "city": "Munda",
    "country": "SB",
    "lat": -8.32797,
    "lon": 157.263,
    "elevation": 10,
    "type": "medium_airport"
  },
  "ANYN": {
    "icao": "ANYN",
    "iata": "INU",
    "name": "Nauru International Airport",
    "city": "Yaren District",
    "country": "NR",
    "lat": -0.547458,
    "lon": 166.919006,
    "elevation": 22,
    "type": "medium_airport"
  },
  "AXF": {
    "icao": "AXF",
    "iata": "AXF",
    "name": "Alxa Left Banner Bayanhot Airport",
    "city": "Bayanhot",
    "country": "CN",
    "lat": 38.748317,
    "lon": 105.58416,
    "elevation": 4560,
    "type": "medium_airport"
  },
  "AYBA": {
    "icao": "AYBA",
    "iata": "VMU",
    "name": "Baimuru Airport",
    "city": "Baimuru",
    "country": "PG",
    "lat": -7.496955,
    "lon": 144.821756,
    "elevation": 27,
    "type": "medium_airport"
  },
  "AYBK": {
    "icao": "AYBK",
    "iata": "BUA",
    "name": "Buka Airport",
    "city": "Buka Island",
    "country": "PG",
    "lat": -5.422299,
    "lon": 154.672698,
    "elevation": 11,
    "type": "medium_airport"
  },
  "AYBM": {
    "icao": "AYBM",
    "iata": "OPU",
    "name": "Balimo Airport",
    "city": "Balimo",
    "country": "PG",
    "lat": -8.05000019073,
    "lon": 142.932998657,
    "elevation": 51,
    "type": "medium_airport"
  },
  "AYCH": {
    "icao": "AYCH",
    "iata": "CMU",
    "name": "Chimbu Airport",
    "city": "Kundiawa",
    "country": "PG",
    "lat": -6.024290084838867,
    "lon": 144.9709930419922,
    "elevation": 4974,
    "type": "medium_airport"
  },
  "AYDU": {
    "icao": "AYDU",
    "iata": "DAU",
    "name": "Daru Airport",
    "city": "Daru",
    "country": "PG",
    "lat": -9.08676,
    "lon": 143.207993,
    "elevation": 20,
    "type": "medium_airport"
  },
  "AYGA": {
    "icao": "AYGA",
    "iata": "GKA",
    "name": "Goroka Airport",
    "city": "Goronka",
    "country": "PG",
    "lat": -6.081689834590001,
    "lon": 145.391998291,
    "elevation": 5282,
    "type": "medium_airport"
  },
  "AYGN": {
    "icao": "AYGN",
    "iata": "GUR",
    "name": "Gurney Airport",
    "city": "Gurney",
    "country": "PG",
    "lat": -10.3114995956,
    "lon": 150.333999634,
    "elevation": 88,
    "type": "medium_airport"
  },
  "AYGR": {
    "icao": "AYGR",
    "iata": "PNP",
    "name": "Girua Airport",
    "city": "Popondetta",
    "country": "PG",
    "lat": -8.80453968048,
    "lon": 148.309005737,
    "elevation": 311,
    "type": "medium_airport"
  },
  "AYHK": {
    "icao": "AYHK",
    "iata": "HKN",
    "name": "Hoskins Airport",
    "city": "Kimbe",
    "country": "PG",
    "lat": -5.463846,
    "lon": 150.407327,
    "elevation": 66,
    "type": "medium_airport"
  },
  "AYKM": {
    "icao": "AYKM",
    "iata": "KMA",
    "name": "Kerema Airport",
    "city": "Kerema",
    "country": "PG",
    "lat": -7.96361017227,
    "lon": 145.770996094,
    "elevation": 10,
    "type": "medium_airport"
  },
  "AYKV": {
    "icao": "AYKV",
    "iata": "KVG",
    "name": "Kavieng Airport",
    "city": "Kavieng",
    "country": "PG",
    "lat": -2.57940006256,
    "lon": 150.807998657,
    "elevation": 7,
    "type": "medium_airport"
  },
  "AYMD": {
    "icao": "AYMD",
    "iata": "MAG",
    "name": "Madang Airport",
    "city": "Madang",
    "country": "PG",
    "lat": -5.20707988739,
    "lon": 145.789001465,
    "elevation": 20,
    "type": "medium_airport"
  },
  "AYMH": {
    "icao": "AYMH",
    "iata": "HGU",
    "name": "Mount Hagen Kagamuga Airport",
    "city": "Mount Hagen",
    "country": "PG",
    "lat": -5.828212,
    "lon": 144.299412,
    "elevation": 5388,
    "type": "medium_airport"
  },
  "AYMN": {
    "icao": "AYMN",
    "iata": "MDU",
    "name": "Mendi Airport",
    "city": "Mendi",
    "country": "PG",
    "lat": -6.14774,
    "lon": 143.656998,
    "elevation": 5680,
    "type": "medium_airport"
  },
  "AYMO": {
    "icao": "AYMO",
    "iata": "MAS",
    "name": "Momote Airport",
    "city": "Manus Island",
    "country": "PG",
    "lat": -2.06189,
    "lon": 147.423996,
    "elevation": 12,
    "type": "medium_airport"
  },
  "AYNZ": {
    "icao": "AYNZ",
    "iata": "LAE",
    "name": "Nadzab Airport",
    "city": "Lae",
    "country": "PG",
    "lat": -6.569803,
    "lon": 146.725977,
    "elevation": 239,
    "type": "medium_airport"
  },
  "AYPY": {
    "icao": "AYPY",
    "iata": "POM",
    "name": "Port Moresby Jacksons International Airport",
    "city": "Port Moresby",
    "country": "PG",
    "lat": -9.443380355834961,
    "lon": 147.22000122070312,
    "elevation": 146,
    "type": "large_airport"
  },
  "AYTK": {
    "icao": "AYTK",
    "iata": "RAB",
    "name": "Tokua Airport",
    "city": "Kokopo",
    "country": "PG",
    "lat": -4.34046,
    "lon": 152.380005,
    "elevation": 49,
    "type": "medium_airport"
  },
  "AYVN": {
    "icao": "AYVN",
    "iata": "VAI",
    "name": "Vanimo Airport",
    "city": "Vanimo",
    "country": "PG",
    "lat": -2.6926,
    "lon": 141.3028,
    "elevation": 10,
    "type": "medium_airport"
  },
  "AYWD": {
    "icao": "AYWD",
    "iata": "WBM",
    "name": "Wapenamanda Airport",
    "city": "Wapenamanda",
    "country": "PG",
    "lat": -5.635293,
    "lon": 143.892231,
    "elevation": 5889,
    "type": "medium_airport"
  },
  "AYWK": {
    "icao": "AYWK",
    "iata": "WWK",
    "name": "Wewak International Airport",
    "city": "Wewak",
    "country": "PG",
    "lat": -3.58383011818,
    "lon": 143.669006348,
    "elevation": 19,
    "type": "medium_airport"
  },
  "BGAA": {
    "icao": "BGAA",
    "iata": "JEG",
    "name": "Aasiaat Airport",
    "city": "Aasiaat",
    "country": "GL",
    "lat": 68.721802,
    "lon": -52.784698,
    "elevation": 74,
    "type": "medium_airport"
  },
  "BGBW": {
    "icao": "BGBW",
    "iata": "UAK",
    "name": "Narsarsuaq Airport",
    "city": "Narsarsuaq",
    "country": "GL",
    "lat": 61.1605,
    "lon": -45.425999,
    "elevation": 112,
    "type": "medium_airport"
  },
  "BGGH": {
    "icao": "BGGH",
    "iata": "GOH",
    "name": "Nuuk Airport",
    "city": "Nuuk",
    "country": "GL",
    "lat": 64.191066,
    "lon": -51.67914,
    "elevation": 283,
    "type": "medium_airport"
  },
  "BGJN": {
    "icao": "BGJN",
    "iata": "JAV",
    "name": "Ilulissat Airport",
    "city": "Ilulissat",
    "country": "GL",
    "lat": 69.243202,
    "lon": -51.057098,
    "elevation": 95,
    "type": "medium_airport"
  },
  "BGKK": {
    "icao": "BGKK",
    "iata": "KUS",
    "name": "Kulusuk Airport",
    "city": "Kulusuk",
    "country": "GL",
    "lat": 65.573601,
    "lon": -37.1236,
    "elevation": 117,
    "type": "medium_airport"
  },
  "BGSF": {
    "icao": "BGSF",
    "iata": "SFJ",
    "name": "Kangerlussuaq Airport",
    "city": "Kangerlussuaq",
    "country": "GL",
    "lat": 67.010446,
    "lon": -50.715294,
    "elevation": 165,
    "type": "medium_airport"
  },
  "BGSS": {
    "icao": "BGSS",
    "iata": "JHS",
    "name": "Sisimiut Airport",
    "city": "Sisimiut",
    "country": "GL",
    "lat": 66.951302,
    "lon": -53.729301,
    "elevation": 33,
    "type": "medium_airport"
  },
  "BGTL": {
    "icao": "BGTL",
    "iata": "THU",
    "name": "Pituffik Space Base",
    "city": "Pituffik",
    "country": "GL",
    "lat": 76.531197,
    "lon": -68.703201,
    "elevation": 251,
    "type": "medium_airport"
  },
  "BIAR": {
    "icao": "BIAR",
    "iata": "AEY",
    "name": "Akureyri Airport",
    "city": "Akureyri",
    "country": "IS",
    "lat": 65.656573,
    "lon": -18.072018,
    "elevation": 6,
    "type": "medium_airport"
  },
  "BIEG": {
    "icao": "BIEG",
    "iata": "EGS",
    "name": "Egilsstaðir Airport",
    "city": "Egilsstaðir",
    "country": "IS",
    "lat": 65.2833023071289,
    "lon": -14.401399612426758,
    "elevation": 76,
    "type": "medium_airport"
  },
  "BIHN": {
    "icao": "BIHN",
    "iata": "HFN",
    "name": "Hornafjörður Airport",
    "city": "Höfn",
    "country": "IS",
    "lat": 64.295601,
    "lon": -15.2272,
    "elevation": 24,
    "type": "medium_airport"
  },
  "BIHU": {
    "icao": "BIHU",
    "iata": "HZK",
    "name": "Húsavík Airport",
    "city": "Húsavík",
    "country": "IS",
    "lat": 65.952301,
    "lon": -17.426001,
    "elevation": 48,
    "type": "medium_airport"
  },
  "BIIS": {
    "icao": "BIIS",
    "iata": "IFJ",
    "name": "Ísafjörður Airport",
    "city": "Ísafjörður",
    "country": "IS",
    "lat": 66.058098,
    "lon": -23.1353,
    "elevation": 8,
    "type": "medium_airport"
  },
  "BIKF": {
    "icao": "BIKF",
    "iata": "KEF",
    "name": "Keflavik International Airport",
    "city": "Reykjavík",
    "country": "IS",
    "lat": 63.985001,
    "lon": -22.6056,
    "elevation": 171,
    "type": "large_airport"
  },
  "BIRK": {
    "icao": "BIRK",
    "iata": "RKV",
    "name": "Reykjavík Domestic Airport",
    "city": "Reykjavík",
    "country": "IS",
    "lat": 64.128732,
    "lon": -21.93759,
    "elevation": 48,
    "type": "medium_airport"
  },
  "BKPR": {
    "icao": "BKPR",
    "iata": "PRN",
    "name": "Priština Adem Jashari International Airport",
    "city": "Prishtina",
    "country": "XK",
    "lat": 42.5728,
    "lon": 21.035801,
    "elevation": 1789,
    "type": "medium_airport"
  },
  "BR-0569": {
    "icao": "BR-0569",
    "iata": "VDC",
    "name": "Glauber de Andrade Rocha Airport",
    "city": "Vitória da Conquista",
    "country": "BR",
    "lat": -14.907885,
    "lon": -40.914804,
    "elevation": 2940,
    "type": "medium_airport"
  },
  "BZ-CUK": {
    "icao": "BZ-CUK",
    "iata": "CUK",
    "name": "Caye Caulker Airport",
    "city": "Caye Caulker",
    "country": "BZ",
    "lat": 17.735015,
    "lon": -88.032862,
    "elevation": 2,
    "type": "medium_airport"
  },
  "BZ-CYC": {
    "icao": "BZ-CYC",
    "iata": "CYC",
    "name": "Caye Chapel Airport",
    "city": "Caye Chapel",
    "country": "BZ",
    "lat": 17.683792,
    "lon": -88.044985,
    "elevation": 3,
    "type": "medium_airport"
  },
  "BZ-CZH": {
    "icao": "BZ-CZH",
    "iata": "CZH",
    "name": "Corozal Airport",
    "city": "Corozal",
    "country": "BZ",
    "lat": 18.3822,
    "lon": -88.411903,
    "elevation": 40,
    "type": "medium_airport"
  },
  "BZ-DGA": {
    "icao": "BZ-DGA",
    "iata": "DGA",
    "name": "Dangriga Airport",
    "city": "Dangriga",
    "country": "BZ",
    "lat": 16.98251,
    "lon": -88.230988,
    "elevation": 10,
    "type": "medium_airport"
  },
  "BZ-PND": {
    "icao": "BZ-PND",
    "iata": "PND",
    "name": "Punta Gorda Airport",
    "city": "Punta Gorda",
    "country": "BZ",
    "lat": 16.1024,
    "lon": -88.808296,
    "elevation": 7,
    "type": "medium_airport"
  },
  "BZ-SPR": {
    "icao": "BZ-SPR",
    "iata": "SPR",
    "name": "John Greif II Airport",
    "city": "San Pedro",
    "country": "BZ",
    "lat": 17.9139,
    "lon": -87.9711,
    "elevation": 4,
    "type": "medium_airport"
  },
  "BZ-TZA": {
    "icao": "BZ-TZA",
    "iata": "TZA",
    "name": "Sir Barry Bowen Municipal Airport",
    "city": "Belize City",
    "country": "BZ",
    "lat": 17.517239,
    "lon": -88.195775,
    "elevation": 8,
    "type": "medium_airport"
  },
  "CAJ4": {
    "icao": "CAJ4",
    "iata": "YAA",
    "name": "Anahim Lake Airport",
    "city": "Anahim Lake",
    "country": "CA",
    "lat": 52.451501,
    "lon": -125.303776,
    "elevation": 3635,
    "type": "medium_airport"
  },
  "CAT4": {
    "icao": "CAT4",
    "iata": "XQU",
    "name": "Qualicum Beach Airport",
    "city": "Qualicum Beach",
    "country": "CA",
    "lat": 49.337456,
    "lon": -124.393086,
    "elevation": 191,
    "type": "medium_airport"
  },
  "CBBC": {
    "icao": "CBBC",
    "iata": "ZEL",
    "name": "Bella Bella (Campbell Island) Airport",
    "city": "Bella Bella",
    "country": "CA",
    "lat": 52.185001,
    "lon": -128.156994,
    "elevation": 141,
    "type": "medium_airport"
  },
  "CN-0079": {
    "icao": "CN-0079",
    "iata": "HSC",
    "name": "Shaoguan Danxia Airport",
    "city": "Shaoguan",
    "country": "CN",
    "lat": 24.9786,
    "lon": 113.420998,
    "elevation": 280,
    "type": "medium_airport"
  },
  "CN-0081": {
    "icao": "CN-0081",
    "iata": "JGS",
    "name": "Jinggangshan Airport",
    "city": "Ji'an",
    "country": "CN",
    "lat": 26.856899,
    "lon": 114.737,
    "elevation": 281,
    "type": "medium_airport"
  },
  "CN-0236": {
    "icao": "CN-0236",
    "iata": "DDR",
    "name": "Rikaze Dingri Airport",
    "city": "Xigazê (Dingri)",
    "country": "CN",
    "lat": 28.604567,
    "lon": 86.798,
    "elevation": 14108,
    "type": "medium_airport"
  },
  "CN-0237": {
    "icao": "CN-0237",
    "iata": "HQL",
    "name": "Tashikuergan Hongqilafu Airport",
    "city": "Tashikuergan",
    "country": "CN",
    "lat": 37.661333,
    "lon": 75.288877,
    "elevation": 10499,
    "type": "medium_airport"
  },
  "CYAG": {
    "icao": "CYAG",
    "iata": "YAG",
    "name": "Fort Frances Municipal Airport",
    "city": "Fort Frances",
    "country": "CA",
    "lat": 48.655749,
    "lon": -93.44349,
    "elevation": 1125,
    "type": "medium_airport"
  },
  "CYAM": {
    "icao": "CYAM",
    "iata": "YAM",
    "name": "Sault Ste Marie Airport",
    "city": "Sault Ste Marie",
    "country": "CA",
    "lat": 46.483216,
    "lon": -84.508467,
    "elevation": 630,
    "type": "medium_airport"
  },
  "CYAQ": {
    "icao": "CYAQ",
    "iata": "XKS",
    "name": "Kasabonika Airport",
    "city": "Kasabonika",
    "country": "CA",
    "lat": 53.52470016479492,
    "lon": -88.6427993774414,
    "elevation": 672,
    "type": "medium_airport"
  },
  "CYAY": {
    "icao": "CYAY",
    "iata": "YAY",
    "name": "St. Anthony Airport",
    "city": "St. Anthony",
    "country": "CA",
    "lat": 51.391909,
    "lon": -56.08321,
    "elevation": 108,
    "type": "medium_airport"
  },
  "CYAZ": {
    "icao": "CYAZ",
    "iata": "YAZ",
    "name": "Tofino / Long Beach Airport",
    "city": "Tofino",
    "country": "CA",
    "lat": 49.079833,
    "lon": -125.775583,
    "elevation": 80,
    "type": "medium_airport"
  },
  "CYBC": {
    "icao": "CYBC",
    "iata": "YBC",
    "name": "Baie-Comeau Airport",
    "city": "Baie-Comeau",
    "country": "CA",
    "lat": 49.1325,
    "lon": -68.204399,
    "elevation": 71,
    "type": "medium_airport"
  },
  "CYBD": {
    "icao": "CYBD",
    "iata": "QBC",
    "name": "Bella Coola Airport",
    "city": "Bella Coola",
    "country": "CA",
    "lat": 52.387501,
    "lon": -126.596001,
    "elevation": 117,
    "type": "medium_airport"
  },
  "CYBF": {
    "icao": "CYBF",
    "iata": "YBY",
    "name": "Bonnyville Airport",
    "city": "Bonnyville",
    "country": "CA",
    "lat": 54.304199,
    "lon": -110.744003,
    "elevation": 1836,
    "type": "medium_airport"
  },
  "CYBG": {
    "icao": "CYBG",
    "iata": "YBG",
    "name": "CFB Bagotville / Saguenay-Bagotville Airport",
    "city": "La Baie",
    "country": "CA",
    "lat": 48.331908,
    "lon": -70.992909,
    "elevation": 522,
    "type": "medium_airport"
  },
  "CYBK": {
    "icao": "CYBK",
    "iata": "YBK",
    "name": "Baker Lake Airport",
    "city": "Baker Lake",
    "country": "CA",
    "lat": 64.29889678960001,
    "lon": -96.077796936,
    "elevation": 59,
    "type": "medium_airport"
  },
  "CYBL": {
    "icao": "CYBL",
    "iata": "YBL",
    "name": "Campbell River Airport",
    "city": "Campbell River",
    "country": "CA",
    "lat": 49.950802,
    "lon": -125.271004,
    "elevation": 346,
    "type": "medium_airport"
  },
  "CYBR": {
    "icao": "CYBR",
    "iata": "YBR",
    "name": "Brandon Municipal Airport",
    "city": "Brandon",
    "country": "CA",
    "lat": 49.91,
    "lon": -99.951897,
    "elevation": 1343,
    "type": "medium_airport"
  },
  "CYBX": {
    "icao": "CYBX",
    "iata": "YBX",
    "name": "Lourdes-de-Blanc-Sablon Airport",
    "city": "Blanc-Sablon",
    "country": "CA",
    "lat": 51.4436,
    "lon": -57.185299,
    "elevation": 121,
    "type": "medium_airport"
  },
  "CYCB": {
    "icao": "CYCB",
    "iata": "YCB",
    "name": "Cambridge Bay Airport",
    "city": "Cambridge Bay",
    "country": "CA",
    "lat": 69.1081008911,
    "lon": -105.138000488,
    "elevation": 90,
    "type": "medium_airport"
  },
  "CYCD": {
    "icao": "CYCD",
    "iata": "YCD",
    "name": "Nanaimo Airport",
    "city": "Nanaimo",
    "country": "CA",
    "lat": 49.05497,
    "lon": -123.869863,
    "elevation": 92,
    "type": "medium_airport"
  },
  "CYCG": {
    "icao": "CYCG",
    "iata": "YCG",
    "name": "Castlegar/West Kootenay Regional Airport",
    "city": "Castlegar",
    "country": "CA",
    "lat": 49.296398,
    "lon": -117.632004,
    "elevation": 1624,
    "type": "medium_airport"
  },
  "CYCL": {
    "icao": "CYCL",
    "iata": "YCL",
    "name": "Charlo Airport",
    "city": "Charlo",
    "country": "CA",
    "lat": 47.990799,
    "lon": -66.330299,
    "elevation": 132,
    "type": "medium_airport"
  },
  "CYDA": {
    "icao": "CYDA",
    "iata": "YDA",
    "name": "Dawson City Airport",
    "city": "Dawson City",
    "country": "CA",
    "lat": 64.04309844970703,
    "lon": -139.1280059814453,
    "elevation": 1215,
    "type": "medium_airport"
  },
  "CYDF": {
    "icao": "CYDF",
    "iata": "YDF",
    "name": "Deer Lake Airport",
    "city": "Deer Lake",
    "country": "CA",
    "lat": 49.2108,
    "lon": -57.391399,
    "elevation": 72,
    "type": "medium_airport"
  },
  "CYDN": {
    "icao": "CYDN",
    "iata": "YDN",
    "name": "Dauphin Barker Airport",
    "city": "Dauphin",
    "country": "CA",
    "lat": 51.1008,
    "lon": -100.052002,
    "elevation": 999,
    "type": "medium_airport"
  },
  "CYEG": {
    "icao": "CYEG",
    "iata": "YEG",
    "name": "Edmonton International Airport",
    "city": "Edmonton",
    "country": "CA",
    "lat": 53.3097,
    "lon": -113.580002,
    "elevation": 2373,
    "type": "large_airport"
  },
  "CYEV": {
    "icao": "CYEV",
    "iata": "YEV",
    "name": "Inuvik Mike Zubko Airport",
    "city": "Inuvik",
    "country": "CA",
    "lat": 68.30419921880001,
    "lon": -133.483001709,
    "elevation": 224,
    "type": "medium_airport"
  },
  "CYFB": {
    "icao": "CYFB",
    "iata": "YFB",
    "name": "Iqaluit Airport",
    "city": "Iqaluit",
    "country": "CA",
    "lat": 63.756402,
    "lon": -68.555801,
    "elevation": 110,
    "type": "medium_airport"
  },
  "CYFC": {
    "icao": "CYFC",
    "iata": "YFC",
    "name": "Fredericton Airport",
    "city": "Fredericton",
    "country": "CA",
    "lat": 45.868900299072266,
    "lon": -66.53720092773438,
    "elevation": 68,
    "type": "medium_airport"
  },
  "CYFS": {
    "icao": "CYFS",
    "iata": "YFS",
    "name": "Fort Simpson Airport",
    "city": "Fort Simpson",
    "country": "CA",
    "lat": 61.76020050048828,
    "lon": -121.23699951171875,
    "elevation": 555,
    "type": "medium_airport"
  },
  "CYGL": {
    "icao": "CYGL",
    "iata": "YGL",
    "name": "La Grande Rivière Airport",
    "city": "La Grande Rivière",
    "country": "CA",
    "lat": 53.625301361083984,
    "lon": -77.7042007446289,
    "elevation": 639,
    "type": "medium_airport"
  },
  "CYGP": {
    "icao": "CYGP",
    "iata": "YGP",
    "name": "Michel-Pouliot Gaspé Airport",
    "city": "Gaspé",
    "country": "CA",
    "lat": 48.774915,
    "lon": -64.481893,
    "elevation": 112,
    "type": "medium_airport"
  },
  "CYGR": {
    "icao": "CYGR",
    "iata": "YGR",
    "name": "Îles-de-la-Madeleine Airport",
    "city": "Les Îles-de-la-Madeleine",
    "country": "CA",
    "lat": 47.425242,
    "lon": -61.778612,
    "elevation": 35,
    "type": "medium_airport"
  },
  "CYGV": {
    "icao": "CYGV",
    "iata": "YGV",
    "name": "Havre-Saint-Pierre Airport",
    "city": "Havre-Saint-Pierre",
    "country": "CA",
    "lat": 50.281898,
    "lon": -63.611401,
    "elevation": 124,
    "type": "medium_airport"
  },
  "CYGW": {
    "icao": "CYGW",
    "iata": "YGW",
    "name": "Kuujjuarapik Airport",
    "city": "Kuujjuarapik",
    "country": "CA",
    "lat": 55.281898498535156,
    "lon": -77.76529693603516,
    "elevation": 34,
    "type": "medium_airport"
  },
  "CYHM": {
    "icao": "CYHM",
    "iata": "YHM",
    "name": "John C. Munro Hamilton International Airport",
    "city": "Hamilton",
    "country": "CA",
    "lat": 43.173599243199995,
    "lon": -79.93499755859999,
    "elevation": 780,
    "type": "medium_airport"
  },
  "CYHU": {
    "icao": "CYHU",
    "iata": "YHU",
    "name": "Montréal / Saint-Hubert Metropolitan Airport",
    "city": "Montréal",
    "country": "CA",
    "lat": 45.517502,
    "lon": -73.416901,
    "elevation": 90,
    "type": "medium_airport"
  },
  "CYHY": {
    "icao": "CYHY",
    "iata": "YHY",
    "name": "Hay River / Merlyn Carter Airport",
    "city": "Hay River",
    "country": "CA",
    "lat": 60.8396987915,
    "lon": -115.782997131,
    "elevation": 541,
    "type": "medium_airport"
  },
  "CYHZ": {
    "icao": "CYHZ",
    "iata": "YHZ",
    "name": "Halifax / Stanfield International Airport",
    "city": "Halifax",
    "country": "CA",
    "lat": 44.8807983398,
    "lon": -63.5085983276,
    "elevation": 477,
    "type": "large_airport"
  },
  "CYIF": {
    "icao": "CYIF",
    "iata": "YIF",
    "name": "St Augustin Airport",
    "city": "St-Augustin",
    "country": "CA",
    "lat": 51.2117,
    "lon": -58.658298,
    "elevation": 20,
    "type": "medium_airport"
  },
  "CYIV": {
    "icao": "CYIV",
    "iata": "YIV",
    "name": "Island Lake Airport",
    "city": "Island Lake",
    "country": "CA",
    "lat": 53.857200622558594,
    "lon": -94.65360260009766,
    "elevation": 770,
    "type": "medium_airport"
  },
  "CYKA": {
    "icao": "CYKA",
    "iata": "YKA",
    "name": "Kamloops John Moose Fulton Field Regional Airport",
    "city": "Kamloops",
    "country": "CA",
    "lat": 50.703038,
    "lon": -120.448641,
    "elevation": 1133,
    "type": "medium_airport"
  },
  "CYKF": {
    "icao": "CYKF",
    "iata": "YKF",
    "name": "Region of Waterloo International Airport",
    "city": "Breslau",
    "country": "CA",
    "lat": 43.4608,
    "lon": -80.378601,
    "elevation": 1054,
    "type": "medium_airport"
  },
  "CYKL": {
    "icao": "CYKL",
    "iata": "YKL",
    "name": "Schefferville Airport",
    "city": "Schefferville",
    "country": "CA",
    "lat": 54.805301666259766,
    "lon": -66.8052978515625,
    "elevation": 1709,
    "type": "medium_airport"
  },
  "CYLL": {
    "icao": "CYLL",
    "iata": "YLL",
    "name": "Lloydminster Airport",
    "city": "Lloydminster",
    "country": "CA",
    "lat": 53.3092,
    "lon": -110.072998,
    "elevation": 2193,
    "type": "medium_airport"
  },
  "CYLS": {
    "icao": "CYLS",
    "iata": "YLK",
    "name": "Barrie-Lake Simcoe Regional Airport",
    "city": "Barrie",
    "country": "CA",
    "lat": 44.485056,
    "lon": -79.554663,
    "elevation": 972,
    "type": "medium_airport"
  },
  "CYLW": {
    "icao": "CYLW",
    "iata": "YLW",
    "name": "Kelowna International Airport",
    "city": "Kelowna",
    "country": "CA",
    "lat": 49.9561,
    "lon": -119.377998,
    "elevation": 1421,
    "type": "medium_airport"
  },
  "CYMM": {
    "icao": "CYMM",
    "iata": "YMM",
    "name": "Fort McMurray Airport",
    "city": "Fort McMurray",
    "country": "CA",
    "lat": 56.653301239,
    "lon": -111.222000122,
    "elevation": 1211,
    "type": "medium_airport"
  },
  "CYMO": {
    "icao": "CYMO",
    "iata": "YMO",
    "name": "Moosonee Airport",
    "city": "Moosonee",
    "country": "CA",
    "lat": 51.291099548339844,
    "lon": -80.60780334472656,
    "elevation": 30,
    "type": "medium_airport"
  },
  "CYMT": {
    "icao": "CYMT",
    "iata": "YMT",
    "name": "Chapais Airport",
    "city": "Chibougamau",
    "country": "CA",
    "lat": 49.77190017700195,
    "lon": -74.5280990600586,
    "elevation": 1270,
    "type": "medium_airport"
  },
  "CYNA": {
    "icao": "CYNA",
    "iata": "YNA",
    "name": "Natashquan Airport",
    "city": "Natashquan",
    "country": "CA",
    "lat": 50.190114,
    "lon": -61.78898,
    "elevation": 39,
    "type": "medium_airport"
  },
  "CYND": {
    "icao": "CYND",
    "iata": "YND",
    "name": "Ottawa / Gatineau Airport",
    "city": "Gatineau",
    "country": "CA",
    "lat": 45.521702,
    "lon": -75.563599,
    "elevation": 211,
    "type": "medium_airport"
  },
  "CYNL": {
    "icao": "CYNL",
    "iata": "YNL",
    "name": "Points North Landing Airport",
    "city": "Points North Landing",
    "country": "CA",
    "lat": 58.27669906616211,
    "lon": -104.08200073242188,
    "elevation": 1605,
    "type": "medium_airport"
  },
  "CYOJ": {
    "icao": "CYOJ",
    "iata": "YOJ",
    "name": "High Level Airport",
    "city": "High Level",
    "country": "CA",
    "lat": 58.62139892578125,
    "lon": -117.16500091552734,
    "elevation": 1110,
    "type": "medium_airport"
  },
  "CYOW": {
    "icao": "CYOW",
    "iata": "YOW",
    "name": "Ottawa Macdonald-Cartier International Airport",
    "city": "Ottawa",
    "country": "CA",
    "lat": 45.322498,
    "lon": -75.669197,
    "elevation": 374,
    "type": "large_airport"
  },
  "CYPA": {
    "icao": "CYPA",
    "iata": "YPA",
    "name": "Prince Albert Glass Field",
    "city": "Prince Albert",
    "country": "CA",
    "lat": 53.214199066199996,
    "lon": -105.672996521,
    "elevation": 1405,
    "type": "medium_airport"
  },
  "CYPE": {
    "icao": "CYPE",
    "iata": "YPE",
    "name": "Peace River Airport",
    "city": "Peace River",
    "country": "CA",
    "lat": 56.226898,
    "lon": -117.446999,
    "elevation": 1873,
    "type": "medium_airport"
  },
  "CYPL": {
    "icao": "CYPL",
    "iata": "YPL",
    "name": "Pickle Lake Airport",
    "city": "Pickle Lake",
    "country": "CA",
    "lat": 51.4463996887207,
    "lon": -90.21420288085938,
    "elevation": 1267,
    "type": "medium_airport"
  },
  "CYPN": {
    "icao": "CYPN",
    "iata": "YPN",
    "name": "Port-Menier Airport",
    "city": "Port-Menier",
    "country": "CA",
    "lat": 49.836399,
    "lon": -64.288597,
    "elevation": 167,
    "type": "medium_airport"
  },
  "CYPR": {
    "icao": "CYPR",
    "iata": "YPR",
    "name": "Prince Rupert Airport",
    "city": "Prince Rupert",
    "country": "CA",
    "lat": 54.286098480199996,
    "lon": -130.445007324,
    "elevation": 116,
    "type": "medium_airport"
  },
  "CYPW": {
    "icao": "CYPW",
    "iata": "YPW",
    "name": "Powell River Airport",
    "city": "Powell River",
    "country": "CA",
    "lat": 49.83420181274414,
    "lon": -124.5,
    "elevation": 425,
    "type": "medium_airport"
  },
  "CYPX": {
    "icao": "CYPX",
    "iata": "YPX",
    "name": "Puvirnituq Airport",
    "city": "Puvirnituq",
    "country": "CA",
    "lat": 60.050598,
    "lon": -77.286903,
    "elevation": 74,
    "type": "medium_airport"
  },
  "CYPY": {
    "icao": "CYPY",
    "iata": "YPY",
    "name": "Fort Chipewyan Airport",
    "city": "Fort Chipewyan",
    "country": "CA",
    "lat": 58.7672004699707,
    "lon": -111.11699676513672,
    "elevation": 761,
    "type": "medium_airport"
  },
  "CYPZ": {
    "icao": "CYPZ",
    "iata": "YPZ",
    "name": "Burns Lake Airport",
    "city": "Burns Lake",
    "country": "CA",
    "lat": 54.3764,
    "lon": -125.950996,
    "elevation": 2343,
    "type": "medium_airport"
  },
  "CYQA": {
    "icao": "CYQA",
    "iata": "YQA",
    "name": "Muskoka Airport",
    "city": "Gravenhurst",
    "country": "CA",
    "lat": 44.975376,
    "lon": -79.306546,
    "elevation": 925,
    "type": "medium_airport"
  },
  "CYQB": {
    "icao": "CYQB",
    "iata": "YQB",
    "name": "Quebec Jean Lesage International Airport",
    "city": "Quebec",
    "country": "CA",
    "lat": 46.7911,
    "lon": -71.393303,
    "elevation": 244,
    "type": "large_airport"
  },
  "CYQD": {
    "icao": "CYQD",
    "iata": "YQD",
    "name": "The Pas Airport",
    "city": "The Pas",
    "country": "CA",
    "lat": 53.97140121459961,
    "lon": -101.09100341796875,
    "elevation": 887,
    "type": "medium_airport"
  },
  "CYQG": {
    "icao": "CYQG",
    "iata": "YQG",
    "name": "Windsor Airport",
    "city": "Windsor",
    "country": "CA",
    "lat": 42.27560043334961,
    "lon": -82.95559692382812,
    "elevation": 622,
    "type": "medium_airport"
  },
  "CYQH": {
    "icao": "CYQH",
    "iata": "YQH",
    "name": "Watson Lake Airport",
    "city": "Watson Lake",
    "country": "CA",
    "lat": 60.116839,
    "lon": -128.821993,
    "elevation": 2255,
    "type": "medium_airport"
  },
  "CYQK": {
    "icao": "CYQK",
    "iata": "YQK",
    "name": "Kenora Airport",
    "city": "Kenora",
    "country": "CA",
    "lat": 49.788299560546875,
    "lon": -94.36309814453125,
    "elevation": 1332,
    "type": "medium_airport"
  },
  "CYQL": {
    "icao": "CYQL",
    "iata": "YQL",
    "name": "Lethbridge County Airport",
    "city": "Lethbridge",
    "country": "CA",
    "lat": 49.6302986145,
    "lon": -112.800003052,
    "elevation": 3048,
    "type": "medium_airport"
  },
  "CYQM": {
    "icao": "CYQM",
    "iata": "YQM",
    "name": "Greater Moncton Roméo LeBlanc International Airport",
    "city": "Moncton",
    "country": "CA",
    "lat": 46.112202,
    "lon": -64.678596,
    "elevation": 232,
    "type": "medium_airport"
  },
  "CYQN": {
    "icao": "CYQN",
    "iata": "YQN",
    "name": "Nakina Airport",
    "city": "Nakina",
    "country": "CA",
    "lat": 50.18280029296875,
    "lon": -86.69640350341797,
    "elevation": 1057,
    "type": "medium_airport"
  },
  "CYQQ": {
    "icao": "CYQQ",
    "iata": "YQQ",
    "name": "Comox Valley Airport / CFB Comox",
    "city": "Comox",
    "country": "CA",
    "lat": 49.7108,
    "lon": -124.887001,
    "elevation": 84,
    "type": "medium_airport"
  },
  "CYQR": {
    "icao": "CYQR",
    "iata": "YQR",
    "name": "Regina International Airport",
    "city": "Regina",
    "country": "CA",
    "lat": 50.43190002441406,
    "lon": -104.66600036621094,
    "elevation": 1894,
    "type": "medium_airport"
  },
  "CYQT": {
    "icao": "CYQT",
    "iata": "YQT",
    "name": "Thunder Bay Airport",
    "city": "Thunder Bay",
    "country": "CA",
    "lat": 48.37189865112305,
    "lon": -89.32389831542969,
    "elevation": 653,
    "type": "medium_airport"
  },
  "CYQU": {
    "icao": "CYQU",
    "iata": "YQU",
    "name": "Grande Prairie Airport",
    "city": "Grande Prairie",
    "country": "CA",
    "lat": 55.1796989441,
    "lon": -118.885002136,
    "elevation": 2195,
    "type": "medium_airport"
  },
  "CYQX": {
    "icao": "CYQX",
    "iata": "YQX",
    "name": "Gander International Airport / CFB Gander",
    "city": "Gander",
    "country": "CA",
    "lat": 48.936258,
    "lon": -54.567719,
    "elevation": 496,
    "type": "medium_airport"
  },
  "CYQY": {
    "icao": "CYQY",
    "iata": "YQY",
    "name": "Sydney / J.A. Douglas McCurdy Airport",
    "city": "Sydney",
    "country": "CA",
    "lat": 46.1614,
    "lon": -60.047798,
    "elevation": 203,
    "type": "medium_airport"
  },
  "CYQZ": {
    "icao": "CYQZ",
    "iata": "YQZ",
    "name": "Quesnel Airport",
    "city": "Quesnel",
    "country": "CA",
    "lat": 53.026100158691406,
    "lon": -122.51000213623047,
    "elevation": 1789,
    "type": "medium_airport"
  },
  "CYRB": {
    "icao": "CYRB",
    "iata": "YRB",
    "name": "Resolute Bay Airport",
    "city": "Resolute Bay",
    "country": "CA",
    "lat": 74.7169036865,
    "lon": -94.9693984985,
    "elevation": 215,
    "type": "medium_airport"
  },
  "CYRJ": {
    "icao": "CYRJ",
    "iata": "YRJ",
    "name": "Roberval Airport",
    "city": "Roberval",
    "country": "CA",
    "lat": 48.519665,
    "lon": -72.265735,
    "elevation": 586,
    "type": "medium_airport"
  },
  "CYRL": {
    "icao": "CYRL",
    "iata": "YRL",
    "name": "Red Lake Airport",
    "city": "Red Lake",
    "country": "CA",
    "lat": 51.066898345947266,
    "lon": -93.79309844970703,
    "elevation": 1265,
    "type": "medium_airport"
  },
  "CYRT": {
    "icao": "CYRT",
    "iata": "YRT",
    "name": "Rankin Inlet Airport",
    "city": "Rankin Inlet",
    "country": "CA",
    "lat": 62.8114013672,
    "lon": -92.1157989502,
    "elevation": 94,
    "type": "medium_airport"
  },
  "CYSB": {
    "icao": "CYSB",
    "iata": "YSB",
    "name": "Sudbury Airport",
    "city": "Sudbury",
    "country": "CA",
    "lat": 46.625,
    "lon": -80.79889678955078,
    "elevation": 1141,
    "type": "medium_airport"
  },
  "CYSF": {
    "icao": "CYSF",
    "iata": "YSF",
    "name": "Stony Rapids Airport",
    "city": "Stony Rapids",
    "country": "CA",
    "lat": 59.250301361083984,
    "lon": -105.84100341796875,
    "elevation": 805,
    "type": "medium_airport"
  },
  "CYSJ": {
    "icao": "CYSJ",
    "iata": "YSJ",
    "name": "Saint John Airport",
    "city": "Saint John",
    "country": "CA",
    "lat": 45.31610107421875,
    "lon": -65.89029693603516,
    "elevation": 357,
    "type": "medium_airport"
  },
  "CYSM": {
    "icao": "CYSM",
    "iata": "YSM",
    "name": "Fort Smith Airport",
    "city": "Fort Smith",
    "country": "CA",
    "lat": 60.020302,
    "lon": -111.961998,
    "elevation": 671,
    "type": "medium_airport"
  },
  "CYSN": {
    "icao": "CYSN",
    "iata": "YCM",
    "name": "Niagara District Airport",
    "city": "Niagara-on-the-Lake",
    "country": "CA",
    "lat": 43.191598,
    "lon": -79.171686,
    "elevation": 321,
    "type": "medium_airport"
  },
  "CYTH": {
    "icao": "CYTH",
    "iata": "YTH",
    "name": "Thompson Airport",
    "city": "Thompson",
    "country": "CA",
    "lat": 55.80110168457031,
    "lon": -97.86419677734375,
    "elevation": 729,
    "type": "medium_airport"
  },
  "CYTS": {
    "icao": "CYTS",
    "iata": "YTS",
    "name": "Timmins/Victor M. Power",
    "city": "Timmins",
    "country": "CA",
    "lat": 48.569698333699996,
    "lon": -81.376701355,
    "elevation": 967,
    "type": "medium_airport"
  },
  "CYTZ": {
    "icao": "CYTZ",
    "iata": "YTZ",
    "name": "Billy Bishop Toronto City Centre Airport",
    "city": "Toronto",
    "country": "CA",
    "lat": 43.627499,
    "lon": -79.396202,
    "elevation": 252,
    "type": "medium_airport"
  },
  "CYUL": {
    "icao": "CYUL",
    "iata": "YUL",
    "name": "Montreal / Pierre Elliott Trudeau International Airport",
    "city": "Montréal",
    "country": "CA",
    "lat": 45.467837,
    "lon": -73.742294,
    "elevation": 118,
    "type": "large_airport"
  },
  "CYUX": {
    "icao": "CYUX",
    "iata": "YUX",
    "name": "Hall Beach Airport",
    "city": "Sanirajak",
    "country": "CA",
    "lat": 68.7761,
    "lon": -81.2425,
    "elevation": 30,
    "type": "medium_airport"
  },
  "CYUY": {
    "icao": "CYUY",
    "iata": "YUY",
    "name": "Rouyn Noranda Airport",
    "city": "Rouyn-Noranda",
    "country": "CA",
    "lat": 48.20610046386719,
    "lon": -78.83560180664062,
    "elevation": 988,
    "type": "medium_airport"
  },
  "CYVB": {
    "icao": "CYVB",
    "iata": "YVB",
    "name": "Bonaventure Airport",
    "city": "Bonaventure",
    "country": "CA",
    "lat": 48.071098,
    "lon": -65.460297,
    "elevation": 123,
    "type": "medium_airport"
  },
  "CYVC": {
    "icao": "CYVC",
    "iata": "YVC",
    "name": "La Ronge Airport",
    "city": "La Ronge",
    "country": "CA",
    "lat": 55.151401519800004,
    "lon": -105.262001038,
    "elevation": 1242,
    "type": "medium_airport"
  },
  "CYVO": {
    "icao": "CYVO",
    "iata": "YVO",
    "name": "Val-d'Or Airport",
    "city": "Val-d'Or",
    "country": "CA",
    "lat": 48.0532989502,
    "lon": -77.7827987671,
    "elevation": 1107,
    "type": "medium_airport"
  },
  "CYVP": {
    "icao": "CYVP",
    "iata": "YVP",
    "name": "Kuujjuaq Airport",
    "city": "Kuujjuaq",
    "country": "CA",
    "lat": 58.096099853515625,
    "lon": -68.4269027709961,
    "elevation": 129,
    "type": "medium_airport"
  },
  "CYVQ": {
    "icao": "CYVQ",
    "iata": "YVQ",
    "name": "Norman Wells Airport",
    "city": "Norman Wells",
    "country": "CA",
    "lat": 65.28160095214844,
    "lon": -126.7979965209961,
    "elevation": 238,
    "type": "medium_airport"
  },
  "CYVR": {
    "icao": "CYVR",
    "iata": "YVR",
    "name": "Vancouver International Airport",
    "city": "Vancouver",
    "country": "CA",
    "lat": 49.193901062,
    "lon": -123.183998108,
    "elevation": 14,
    "type": "large_airport"
  },
  "CYVV": {
    "icao": "CYVV",
    "iata": "YVV",
    "name": "Wiarton Airport",
    "city": "Wiarton",
    "country": "CA",
    "lat": 44.7458,
    "lon": -81.107201,
    "elevation": 729,
    "type": "medium_airport"
  },
  "CYWG": {
    "icao": "CYWG",
    "iata": "YWG",
    "name": "Winnipeg / James Armstrong Richardson International Airport",
    "city": "Winnipeg",
    "country": "CA",
    "lat": 49.909999847399995,
    "lon": -97.2398986816,
    "elevation": 783,
    "type": "large_airport"
  },
  "CYWK": {
    "icao": "CYWK",
    "iata": "YWK",
    "name": "Wabush Airport",
    "city": "Wabush",
    "country": "CA",
    "lat": 52.92190170288086,
    "lon": -66.8644027709961,
    "elevation": 1808,
    "type": "medium_airport"
  },
  "CYWL": {
    "icao": "CYWL",
    "iata": "YWL",
    "name": "Williams Lake Airport",
    "city": "Williams Lake",
    "country": "CA",
    "lat": 52.1831016541,
    "lon": -122.054000854,
    "elevation": 3085,
    "type": "medium_airport"
  },
  "CYXC": {
    "icao": "CYXC",
    "iata": "YXC",
    "name": "Cranbrook/Canadian Rockies International Airport",
    "city": "Cranbrook",
    "country": "CA",
    "lat": 49.610801696777,
    "lon": -115.78199768066,
    "elevation": 3082,
    "type": "medium_airport"
  },
  "CYXE": {
    "icao": "CYXE",
    "iata": "YXE",
    "name": "Saskatoon John G. Diefenbaker International Airport",
    "city": "Saskatoon",
    "country": "CA",
    "lat": 52.170799255371094,
    "lon": -106.69999694824219,
    "elevation": 1653,
    "type": "medium_airport"
  },
  "CYXH": {
    "icao": "CYXH",
    "iata": "YXH",
    "name": "Medicine Hat Regional Airport",
    "city": "Medicine Hat",
    "country": "CA",
    "lat": 50.018902,
    "lon": -110.721001,
    "elevation": 2352,
    "type": "medium_airport"
  },
  "CYXJ": {
    "icao": "CYXJ",
    "iata": "YXJ",
    "name": "Fort St John / North Peace Regional Airport",
    "city": "Fort Saint John",
    "country": "CA",
    "lat": 56.238098,
    "lon": -120.739998,
    "elevation": 2280,
    "type": "medium_airport"
  },
  "CYXK": {
    "icao": "CYXK",
    "iata": "YXK",
    "name": "Rimouski Airport",
    "city": "Rimouski",
    "country": "CA",
    "lat": 48.477644,
    "lon": -68.496323,
    "elevation": 82,
    "type": "medium_airport"
  },
  "CYXL": {
    "icao": "CYXL",
    "iata": "YXL",
    "name": "Sioux Lookout Airport",
    "city": "Sioux Lookout",
    "country": "CA",
    "lat": 50.11389923095703,
    "lon": -91.9052963256836,
    "elevation": 1258,
    "type": "medium_airport"
  },
  "CYXS": {
    "icao": "CYXS",
    "iata": "YXS",
    "name": "Prince George Airport",
    "city": "Prince George",
    "country": "CA",
    "lat": 53.884311,
    "lon": -122.666554,
    "elevation": 2267,
    "type": "medium_airport"
  },
  "CYXT": {
    "icao": "CYXT",
    "iata": "YXT",
    "name": "Northwest Regional Airport Terrace-Kitimat",
    "city": "Terrace",
    "country": "CA",
    "lat": 54.468498,
    "lon": -128.576009,
    "elevation": 713,
    "type": "medium_airport"
  },
  "CYXU": {
    "icao": "CYXU",
    "iata": "YXU",
    "name": "London Airport",
    "city": "London",
    "country": "CA",
    "lat": 43.035599,
    "lon": -81.1539,
    "elevation": 912,
    "type": "medium_airport"
  },
  "CYXX": {
    "icao": "CYXX",
    "iata": "YXX",
    "name": "Abbotsford International Airport",
    "city": "Abbotsford",
    "country": "CA",
    "lat": 49.025299,
    "lon": -122.361,
    "elevation": 195,
    "type": "medium_airport"
  },
  "CYXY": {
    "icao": "CYXY",
    "iata": "YXY",
    "name": "Whitehorse / Erik Nielsen International Airport",
    "city": "Whitehorse",
    "country": "CA",
    "lat": 60.709599,
    "lon": -135.067001,
    "elevation": 2317,
    "type": "medium_airport"
  },
  "CYYB": {
    "icao": "CYYB",
    "iata": "YYB",
    "name": "North Bay Jack Garland Airport",
    "city": "North Bay",
    "country": "CA",
    "lat": 46.363602,
    "lon": -79.422798,
    "elevation": 1215,
    "type": "medium_airport"
  },
  "CYYC": {
    "icao": "CYYC",
    "iata": "YYC",
    "name": "Calgary International Airport",
    "city": "Calgary",
    "country": "CA",
    "lat": 51.118822,
    "lon": -114.009933,
    "elevation": 3557,
    "type": "large_airport"
  },
  "CYYD": {
    "icao": "CYYD",
    "iata": "YYD",
    "name": "Smithers Airport",
    "city": "Smithers",
    "country": "CA",
    "lat": 54.82469940185547,
    "lon": -127.18299865722656,
    "elevation": 1712,
    "type": "medium_airport"
  },
  "CYYE": {
    "icao": "CYYE",
    "iata": "YYE",
    "name": "Fort Nelson Airport",
    "city": "Fort Nelson",
    "country": "CA",
    "lat": 58.8363990784,
    "lon": -122.597000122,
    "elevation": 1253,
    "type": "medium_airport"
  },
  "CYYF": {
    "icao": "CYYF",
    "iata": "YYF",
    "name": "Penticton Airport",
    "city": "Penticton",
    "country": "CA",
    "lat": 49.46310043334961,
    "lon": -119.60199737548828,
    "elevation": 1129,
    "type": "medium_airport"
  },
  "CYYG": {
    "icao": "CYYG",
    "iata": "YYG",
    "name": "Charlottetown Airport",
    "city": "Charlottetown",
    "country": "CA",
    "lat": 46.290000915527344,
    "lon": -63.12110137939453,
    "elevation": 160,
    "type": "medium_airport"
  },
  "CYYJ": {
    "icao": "CYYJ",
    "iata": "YYJ",
    "name": "Victoria International Airport",
    "city": "Victoria",
    "country": "CA",
    "lat": 48.647201,
    "lon": -123.427792,
    "elevation": 63,
    "type": "medium_airport"
  },
  "CYYL": {
    "icao": "CYYL",
    "iata": "YYL",
    "name": "Lynn Lake Airport",
    "city": "Lynn Lake",
    "country": "CA",
    "lat": 56.86389923095703,
    "lon": -101.07599639892578,
    "elevation": 1170,
    "type": "medium_airport"
  },
  "CYYQ": {
    "icao": "CYYQ",
    "iata": "YYQ",
    "name": "Churchill Airport",
    "city": "Churchill",
    "country": "CA",
    "lat": 58.739200592041016,
    "lon": -94.06500244140625,
    "elevation": 94,
    "type": "medium_airport"
  },
  "CYYR": {
    "icao": "CYYR",
    "iata": "YYR",
    "name": "Goose Bay Airport",
    "city": "Goose Bay",
    "country": "CA",
    "lat": 53.3191986084,
    "lon": -60.4258003235,
    "elevation": 160,
    "type": "medium_airport"
  },
  "CYYT": {
    "icao": "CYYT",
    "iata": "YYT",
    "name": "St. John's International Airport",
    "city": "St. John's",
    "country": "CA",
    "lat": 47.618599,
    "lon": -52.7519,
    "elevation": 461,
    "type": "large_airport"
  },
  "CYYY": {
    "icao": "CYYY",
    "iata": "YYY",
    "name": "Mont Joli Airport",
    "city": "Mont-Joli",
    "country": "CA",
    "lat": 48.60860061645508,
    "lon": -68.20809936523438,
    "elevation": 172,
    "type": "medium_airport"
  },
  "CYYZ": {
    "icao": "CYYZ",
    "iata": "YYZ",
    "name": "Toronto Lester B. Pearson International Airport",
    "city": "Toronto",
    "country": "CA",
    "lat": 43.6772,
    "lon": -79.6306,
    "elevation": 569,
    "type": "large_airport"
  },
  "CYZF": {
    "icao": "CYZF",
    "iata": "YZF",
    "name": "Yellowknife International Airport",
    "city": "Yellowknife",
    "country": "CA",
    "lat": 62.462799,
    "lon": -114.440002,
    "elevation": 675,
    "type": "medium_airport"
  },
  "CYZP": {
    "icao": "CYZP",
    "iata": "YZP",
    "name": "Sandspit Airport",
    "city": "Sandspit",
    "country": "CA",
    "lat": 53.25429916379999,
    "lon": -131.813995361,
    "elevation": 21,
    "type": "medium_airport"
  },
  "CYZS": {
    "icao": "CYZS",
    "iata": "YZS",
    "name": "Coral Harbour Airport",
    "city": "Coral Harbour",
    "country": "CA",
    "lat": 64.1932983398,
    "lon": -83.3593978882,
    "elevation": 210,
    "type": "medium_airport"
  },
  "CYZT": {
    "icao": "CYZT",
    "iata": "YZT",
    "name": "Port Hardy Airport",
    "city": "Port Hardy",
    "country": "CA",
    "lat": 50.680599212646484,
    "lon": -127.36699676513672,
    "elevation": 71,
    "type": "medium_airport"
  },
  "CYZU": {
    "icao": "CYZU",
    "iata": "YZU",
    "name": "Whitecourt Airport",
    "city": "Whitecourt",
    "country": "CA",
    "lat": 54.143902,
    "lon": -115.787003,
    "elevation": 2567,
    "type": "medium_airport"
  },
  "CYZV": {
    "icao": "CYZV",
    "iata": "YZV",
    "name": "Sept-Îles Airport",
    "city": "Sept-Îles",
    "country": "CA",
    "lat": 50.22330093383789,
    "lon": -66.2656021118164,
    "elevation": 180,
    "type": "medium_airport"
  },
  "CZBF": {
    "icao": "CZBF",
    "iata": "ZBF",
    "name": "Bathurst Airport",
    "city": "South Tetagouche",
    "country": "CA",
    "lat": 47.6297,
    "lon": -65.738899,
    "elevation": 193,
    "type": "medium_airport"
  },
  "CZMT": {
    "icao": "CZMT",
    "iata": "ZMT",
    "name": "Masset Airport",
    "city": "Masset",
    "country": "CA",
    "lat": 54.0275,
    "lon": -132.125,
    "elevation": 25,
    "type": "medium_airport"
  },
  "CZSJ": {
    "icao": "CZSJ",
    "iata": "ZSJ",
    "name": "Sandy Lake Airport",
    "city": "Sandy Lake",
    "country": "CA",
    "lat": 53.06420135498047,
    "lon": -93.34439849853516,
    "elevation": 951,
    "type": "medium_airport"
  },
  "DAAE": {
    "icao": "DAAE",
    "iata": "BJA",
    "name": "Soummam–Abane Ramdane Airport",
    "city": "Béjaïa",
    "country": "DZ",
    "lat": 36.711952,
    "lon": 5.069804,
    "elevation": 20,
    "type": "medium_airport"
  },
  "DAAG": {
    "icao": "DAAG",
    "iata": "ALG",
    "name": "Houari Boumediene Airport",
    "city": "Algiers",
    "country": "DZ",
    "lat": 36.693886,
    "lon": 3.214531,
    "elevation": 82,
    "type": "large_airport"
  },
  "DAAJ": {
    "icao": "DAAJ",
    "iata": "DJG",
    "name": "Djanet Inedbirene Airport",
    "city": "Djanet",
    "country": "DZ",
    "lat": 24.292801,
    "lon": 9.45244,
    "elevation": 3176,
    "type": "medium_airport"
  },
  "DAAP": {
    "icao": "DAAP",
    "iata": "VVZ",
    "name": "Illizi Takhamalt Airport",
    "city": "Illizi",
    "country": "DZ",
    "lat": 26.723499,
    "lon": 8.62265,
    "elevation": 1778,
    "type": "medium_airport"
  },
  "DAAS": {
    "icao": "DAAS",
    "iata": "QSF",
    "name": "Ain Arnat Airport",
    "city": "Sétif",
    "country": "DZ",
    "lat": 36.178100585900005,
    "lon": 5.3244900703399995,
    "elevation": 3360,
    "type": "medium_airport"
  },
  "DAAT": {
    "icao": "DAAT",
    "iata": "TMR",
    "name": "Aguenar – Hadj Bey Akhamok Airport",
    "city": "Tamanrasset",
    "country": "DZ",
    "lat": 22.811501,
    "lon": 5.45108,
    "elevation": 4518,
    "type": "medium_airport"
  },
  "DAAV": {
    "icao": "DAAV",
    "iata": "GJL",
    "name": "Jijel Ferhat Abbas Airport",
    "city": "Tahir",
    "country": "DZ",
    "lat": 36.795101,
    "lon": 5.87361,
    "elevation": 36,
    "type": "medium_airport"
  },
  "DABB": {
    "icao": "DABB",
    "iata": "AAE",
    "name": "Annaba Rabah Bitat Airport",
    "city": "Annaba",
    "country": "DZ",
    "lat": 36.826781,
    "lon": 7.81334,
    "elevation": 16,
    "type": "medium_airport"
  },
  "DABC": {
    "icao": "DABC",
    "iata": "CZL",
    "name": "Mohamed Boudiaf International Airport",
    "city": "Constantine",
    "country": "DZ",
    "lat": 36.2760009765625,
    "lon": 6.620389938354492,
    "elevation": 2265,
    "type": "medium_airport"
  },
  "DABS": {
    "icao": "DABS",
    "iata": "TEE",
    "name": "Cheikh Larbi Tébessi Airport",
    "city": "Tébessi",
    "country": "DZ",
    "lat": 35.4315986633,
    "lon": 8.12071990967,
    "elevation": 2661,
    "type": "medium_airport"
  },
  "DABT": {
    "icao": "DABT",
    "iata": "BLJ",
    "name": "Batna Mostefa Ben Boulaid Airport",
    "city": "Batna",
    "country": "DZ",
    "lat": 35.752102,
    "lon": 6.30859,
    "elevation": 2697,
    "type": "medium_airport"
  },
  "DAOF": {
    "icao": "DAOF",
    "iata": "TIN",
    "name": "Tindouf Airport",
    "city": "Tindouf",
    "country": "DZ",
    "lat": 27.7003993988,
    "lon": -8.167099952700001,
    "elevation": 1453,
    "type": "medium_airport"
  },
  "DAOI": {
    "icao": "DAOI",
    "iata": "CFK",
    "name": "Chlef Aboubakr Belkaid International Airport",
    "city": "Chlef",
    "country": "DZ",
    "lat": 36.217166,
    "lon": 1.342237,
    "elevation": 463,
    "type": "medium_airport"
  },
  "DAON": {
    "icao": "DAON",
    "iata": "TLM",
    "name": "Zenata – Messali El Hadj Airport",
    "city": "Zenata",
    "country": "DZ",
    "lat": 35.013426,
    "lon": -1.457191,
    "elevation": 814,
    "type": "medium_airport"
  },
  "DAOO": {
    "icao": "DAOO",
    "iata": "ORN",
    "name": "Oran Es-Sénia (Ahmed Ben Bella) International Airport",
    "city": "Es-Sénia",
    "country": "DZ",
    "lat": 35.623901,
    "lon": -0.621183,
    "elevation": 295,
    "type": "medium_airport"
  },
  "DAOR": {
    "icao": "DAOR",
    "iata": "CBH",
    "name": "Béchar Boudghene Ben Ali Lotfi Airport",
    "city": "Béchar",
    "country": "DZ",
    "lat": 31.645700454711914,
    "lon": -2.269860029220581,
    "elevation": 2661,
    "type": "medium_airport"
  },
  "DAUA": {
    "icao": "DAUA",
    "iata": "AZR",
    "name": "Touat Cheikh Sidi Mohamed Belkebir Airport",
    "city": "Adrar",
    "country": "DZ",
    "lat": 27.837601,
    "lon": -0.186414,
    "elevation": 919,
    "type": "medium_airport"
  },
  "DAUB": {
    "icao": "DAUB",
    "iata": "BSK",
    "name": "Biskra - Mohamed Khider Airport",
    "city": "Biskra",
    "country": "DZ",
    "lat": 34.793301,
    "lon": 5.73823,
    "elevation": 289,
    "type": "medium_airport"
  },
  "DAUE": {
    "icao": "DAUE",
    "iata": "ELG",
    "name": "El Golea Airport",
    "city": "El Menia",
    "country": "DZ",
    "lat": 30.580732,
    "lon": 2.861595,
    "elevation": 1306,
    "type": "medium_airport"
  },
  "DAUG": {
    "icao": "DAUG",
    "iata": "GHA",
    "name": "Noumérat - Moufdi Zakaria Airport",
    "city": "El Atteuf",
    "country": "DZ",
    "lat": 32.384102,
    "lon": 3.79411,
    "elevation": 1512,
    "type": "medium_airport"
  },
  "DAUH": {
    "icao": "DAUH",
    "iata": "HME",
    "name": "Hassi Messaoud-Oued Irara Krim Belkacem Airport",
    "city": "Hassi Messaoud",
    "country": "DZ",
    "lat": 31.673,
    "lon": 6.14044,
    "elevation": 463,
    "type": "medium_airport"
  },
  "DAUI": {
    "icao": "DAUI",
    "iata": "INZ",
    "name": "In Salah Airport",
    "city": "In Salah",
    "country": "DZ",
    "lat": 27.250999,
    "lon": 2.51202,
    "elevation": 896,
    "type": "medium_airport"
  },
  "DAUK": {
    "icao": "DAUK",
    "iata": "TGR",
    "name": "Touggourt Sidi Madhi Airport",
    "city": "Touggourt",
    "country": "DZ",
    "lat": 33.067799,
    "lon": 6.08867,
    "elevation": 279,
    "type": "medium_airport"
  },
  "DAUO": {
    "icao": "DAUO",
    "iata": "ELU",
    "name": "Guemar Airport - مطار قمار بالوادي",
    "city": "Guemar",
    "country": "DZ",
    "lat": 33.511398,
    "lon": 6.77679,
    "elevation": 203,
    "type": "medium_airport"
  },
  "DAUT": {
    "icao": "DAUT",
    "iata": "TMX",
    "name": "Timimoun Airport",
    "city": "Timimoun",
    "country": "DZ",
    "lat": 29.237101,
    "lon": 0.276033,
    "elevation": 1027,
    "type": "medium_airport"
  },
  "DAUU": {
    "icao": "DAUU",
    "iata": "OGX",
    "name": "Ain Beida Airport",
    "city": "Ouargla",
    "country": "DZ",
    "lat": 31.9172,
    "lon": 5.41278,
    "elevation": 492,
    "type": "medium_airport"
  },
  "DAUZ": {
    "icao": "DAUZ",
    "iata": "IAM",
    "name": "Zarzaitine - In Aménas Airport",
    "city": "In Aménas",
    "country": "DZ",
    "lat": 28.0515,
    "lon": 9.64291,
    "elevation": 1847,
    "type": "medium_airport"
  },
  "DBBB": {
    "icao": "DBBB",
    "iata": "COO",
    "name": "Cadjehoun Airport",
    "city": "Cotonou",
    "country": "BJ",
    "lat": 6.357230186462402,
    "lon": 2.384350061416626,
    "elevation": 19,
    "type": "medium_airport"
  },
  "DFFD": {
    "icao": "DFFD",
    "iata": "OUA",
    "name": "Ouagadougou Airport",
    "city": "Ouagadougou",
    "country": "BF",
    "lat": 12.3532,
    "lon": -1.51242,
    "elevation": 1037,
    "type": "medium_airport"
  },
  "DFOO": {
    "icao": "DFOO",
    "iata": "BOY",
    "name": "Bobo Dioulasso Airport",
    "city": "Bobo Dioulasso",
    "country": "BF",
    "lat": 11.160099983215332,
    "lon": -4.33096981048584,
    "elevation": 1511,
    "type": "medium_airport"
  },
  "DGAA": {
    "icao": "DGAA",
    "iata": "ACC",
    "name": "Kotoka International Airport",
    "city": "Accra",
    "country": "GH",
    "lat": 5.605189800262451,
    "lon": -0.16678600013256073,
    "elevation": 205,
    "type": "large_airport"
  },
  "DGLE": {
    "icao": "DGLE",
    "iata": "TML",
    "name": "Tamale Airport",
    "city": "Tamale",
    "country": "GH",
    "lat": 9.55718994140625,
    "lon": -0.8632140159606934,
    "elevation": 553,
    "type": "medium_airport"
  },
  "DGSI": {
    "icao": "DGSI",
    "iata": "KMS",
    "name": "Kumasi Airport",
    "city": "Kumasi",
    "country": "GH",
    "lat": 6.714560031890869,
    "lon": -1.5908199548721313,
    "elevation": 942,
    "type": "medium_airport"
  },
  "DGSN": {
    "icao": "DGSN",
    "iata": "NYI",
    "name": "Sunyani Airport",
    "city": "Sunyani",
    "country": "GH",
    "lat": 7.36183,
    "lon": -2.32876,
    "elevation": 1014,
    "type": "medium_airport"
  },
  "DGTK": {
    "icao": "DGTK",
    "iata": "TKD",
    "name": "Takoradi Airport",
    "city": "Sekondi-Takoradi",
    "country": "GH",
    "lat": 4.896059989929199,
    "lon": -1.7747600078582764,
    "elevation": 21,
    "type": "medium_airport"
  },
  "DIAP": {
    "icao": "DIAP",
    "iata": "ABJ",
    "name": "Félix-Houphouët-Boigny International Airport",
    "city": "Abidjan",
    "country": "CI",
    "lat": 5.26139,
    "lon": -3.92629,
    "elevation": 21,
    "type": "medium_airport"
  },
  "DIBK": {
    "icao": "DIBK",
    "iata": "BYK",
    "name": "Bouaké Airport",
    "city": "Bouaké",
    "country": "CI",
    "lat": 7.7388,
    "lon": -5.07367,
    "elevation": 1230,
    "type": "medium_airport"
  },
  "DIKO": {
    "icao": "DIKO",
    "iata": "HGO",
    "name": "Korhogo Airport",
    "city": "Korhogo",
    "country": "CI",
    "lat": 9.38718,
    "lon": -5.55666,
    "elevation": 1214,
    "type": "medium_airport"
  },
  "DISP": {
    "icao": "DISP",
    "iata": "SPY",
    "name": "San Pedro Airport",
    "city": "",
    "country": "CI",
    "lat": 4.74672,
    "lon": -6.66082,
    "elevation": 26,
    "type": "medium_airport"
  },
  "DNAA": {
    "icao": "DNAA",
    "iata": "ABV",
    "name": "Nnamdi Azikiwe International Airport",
    "city": "Abuja",
    "country": "NG",
    "lat": 9.00679,
    "lon": 7.26317,
    "elevation": 1123,
    "type": "large_airport"
  },
  "DNAI": {
    "icao": "DNAI",
    "iata": "QUO",
    "name": "Akwa Ibom International Airport",
    "city": "Uyo",
    "country": "NG",
    "lat": 4.8725,
    "lon": 8.093,
    "elevation": 170,
    "type": "medium_airport"
  },
  "DNAK": {
    "icao": "DNAK",
    "iata": "AKR",
    "name": "Akure Airport",
    "city": "Akure",
    "country": "NG",
    "lat": 7.246739864349365,
    "lon": 5.3010101318359375,
    "elevation": 1100,
    "type": "medium_airport"
  },
  "DNBC": {
    "icao": "DNBC",
    "iata": "BCU",
    "name": "Sir Abubakar Tafawa Balewa International Airport",
    "city": "Bauchi",
    "country": "NG",
    "lat": 10.482833,
    "lon": 9.744,
    "elevation": 1965,
    "type": "medium_airport"
  },
  "DNBE": {
    "icao": "DNBE",
    "iata": "BNI",
    "name": "Benin Airport",
    "city": "Benin",
    "country": "NG",
    "lat": 6.316979885101318,
    "lon": 5.5995001792907715,
    "elevation": 258,
    "type": "medium_airport"
  },
  "DNCA": {
    "icao": "DNCA",
    "iata": "CBQ",
    "name": "Margaret Ekpo International Airport",
    "city": "Calabar",
    "country": "NG",
    "lat": 4.976019859313965,
    "lon": 8.347200393676758,
    "elevation": 210,
    "type": "medium_airport"
  },
  "DNEN": {
    "icao": "DNEN",
    "iata": "ENU",
    "name": "Akanu Ibiam International Airport",
    "city": "Enegu",
    "country": "NG",
    "lat": 6.474269866943359,
    "lon": 7.561960220336914,
    "elevation": 466,
    "type": "medium_airport"
  },
  "DNGO": {
    "icao": "DNGO",
    "iata": "GMO",
    "name": "Gombe Lawanti International Airport",
    "city": "Gombe",
    "country": "NG",
    "lat": 10.298889,
    "lon": 10.9,
    "elevation": 1590,
    "type": "medium_airport"
  },
  "DNIB": {
    "icao": "DNIB",
    "iata": "IBA",
    "name": "Ibadan Airport",
    "city": "Ibadan",
    "country": "NG",
    "lat": 7.362460136413574,
    "lon": 3.97832989692688,
    "elevation": 725,
    "type": "medium_airport"
  },
  "DNIL": {
    "icao": "DNIL",
    "iata": "ILR",
    "name": "Ilorin International Airport",
    "city": "Ilorin",
    "country": "NG",
    "lat": 8.440210342407227,
    "lon": 4.493919849395752,
    "elevation": 1126,
    "type": "medium_airport"
  },
  "DNIM": {
    "icao": "DNIM",
    "iata": "QOW",
    "name": "Sam Mbakwe International Airport",
    "city": "Owerri",
    "country": "NG",
    "lat": 5.427060127258301,
    "lon": 7.206029891967773,
    "elevation": 373,
    "type": "medium_airport"
  },
  "DNJO": {
    "icao": "DNJO",
    "iata": "JOS",
    "name": "Yakubu Gowon Airport",
    "city": "Jos",
    "country": "NG",
    "lat": 9.639829635620117,
    "lon": 8.869050025939941,
    "elevation": 4232,
    "type": "medium_airport"
  },
  "DNKA": {
    "icao": "DNKA",
    "iata": "KAD",
    "name": "Kaduna Airport",
    "city": "Kaduna",
    "country": "NG",
    "lat": 10.696000099182129,
    "lon": 7.320109844207764,
    "elevation": 2073,
    "type": "medium_airport"
  },
  "DNKN": {
    "icao": "DNKN",
    "iata": "KAN",
    "name": "Mallam Aminu International Airport",
    "city": "Kano",
    "country": "NG",
    "lat": 12.0476,
    "lon": 8.52462,
    "elevation": 1562,
    "type": "medium_airport"
  },
  "DNMA": {
    "icao": "DNMA",
    "iata": "MIU",
    "name": "Maiduguri International Airport",
    "city": "Maiduguri",
    "country": "NG",
    "lat": 11.855299949645996,
    "lon": 13.080900192260742,
    "elevation": 1099,
    "type": "medium_airport"
  },
  "DNMK": {
    "icao": "DNMK",
    "iata": "MDI",
    "name": "Makurdi Airport",
    "city": "Makurdi",
    "country": "NG",
    "lat": 7.70388,
    "lon": 8.61394,
    "elevation": 371,
    "type": "medium_airport"
  },
  "DNMM": {
    "icao": "DNMM",
    "iata": "LOS",
    "name": "Murtala Muhammed International Airport",
    "city": "Lagos",
    "country": "NG",
    "lat": 6.57737,
    "lon": 3.32116,
    "elevation": 135,
    "type": "large_airport"
  },
  "DNPO": {
    "icao": "DNPO",
    "iata": "PHC",
    "name": "Port Harcourt International Airport",
    "city": "Port Harcourt",
    "country": "NG",
    "lat": 5.0154900550842285,
    "lon": 6.94959020614624,
    "elevation": 87,
    "type": "medium_airport"
  },
  "DNSO": {
    "icao": "DNSO",
    "iata": "SKO",
    "name": "Sadiq Abubakar III International Airport",
    "city": "Sokoto",
    "country": "NG",
    "lat": 12.916299819946289,
    "lon": 5.207190036773682,
    "elevation": 1010,
    "type": "medium_airport"
  },
  "DNSU": {
    "icao": "DNSU",
    "iata": "QRW",
    "name": "Warri Airport",
    "city": "Okpe",
    "country": "NG",
    "lat": 5.59821,
    "lon": 5.8187,
    "elevation": 242,
    "type": "medium_airport"
  },
  "DNYO": {
    "icao": "DNYO",
    "iata": "YOL",
    "name": "Yola Airport",
    "city": "Yola",
    "country": "NG",
    "lat": 9.257550239562988,
    "lon": 12.430399894714355,
    "elevation": 599,
    "type": "medium_airport"
  },
  "DRRN": {
    "icao": "DRRN",
    "iata": "NIM",
    "name": "Diori Hamani International Airport",
    "city": "Niamey",
    "country": "NE",
    "lat": 13.4815,
    "lon": 2.18361,
    "elevation": 732,
    "type": "large_airport"
  },
  "DRZA": {
    "icao": "DRZA",
    "iata": "AJY",
    "name": "Mano Dayak International Airport",
    "city": "Agadez",
    "country": "NE",
    "lat": 16.965999603271484,
    "lon": 8.000109672546387,
    "elevation": 1657,
    "type": "medium_airport"
  },
  "DRZR": {
    "icao": "DRZR",
    "iata": "ZND",
    "name": "Zinder Airport",
    "city": "Zinder",
    "country": "NE",
    "lat": 13.779000282287598,
    "lon": 8.983759880065918,
    "elevation": 1516,
    "type": "medium_airport"
  },
  "DTKA": {
    "icao": "DTKA",
    "iata": "TBJ",
    "name": "Tabarka-Aïn Draham International Airport",
    "city": "Tabarka",
    "country": "TN",
    "lat": 36.98,
    "lon": 8.87694,
    "elevation": 230,
    "type": "medium_airport"
  },
  "DTMB": {
    "icao": "DTMB",
    "iata": "MIR",
    "name": "Monastir Habib Bourguiba International Airport",
    "city": "Monastir",
    "country": "TN",
    "lat": 35.75809860229492,
    "lon": 10.75469970703125,
    "elevation": 9,
    "type": "medium_airport"
  },
  "DTNH": {
    "icao": "DTNH",
    "iata": "NBE",
    "name": "Enfidha - Hammamet International Airport",
    "city": "Enfidha",
    "country": "TN",
    "lat": 36.075833,
    "lon": 10.438611,
    "elevation": 21,
    "type": "medium_airport"
  },
  "DTTA": {
    "icao": "DTTA",
    "iata": "TUN",
    "name": "Tunis Carthage International Airport",
    "city": "Tunis",
    "country": "TN",
    "lat": 36.851002,
    "lon": 10.2272,
    "elevation": 22,
    "type": "large_airport"
  },
  "DTTF": {
    "icao": "DTTF",
    "iata": "GAF",
    "name": "Gafsa Ksar International Airport",
    "city": "Gafsa",
    "country": "TN",
    "lat": 34.422000885009766,
    "lon": 8.822500228881836,
    "elevation": 1060,
    "type": "medium_airport"
  },
  "DTTG": {
    "icao": "DTTG",
    "iata": "GAE",
    "name": "Gabès Matmata International Airport",
    "city": "Gabès",
    "country": "TN",
    "lat": 33.733691,
    "lon": 9.91941,
    "elevation": 407,
    "type": "medium_airport"
  },
  "DTTJ": {
    "icao": "DTTJ",
    "iata": "DJE",
    "name": "Djerba Zarzis International Airport",
    "city": "Mellita",
    "country": "TN",
    "lat": 33.875,
    "lon": 10.7755,
    "elevation": 19,
    "type": "medium_airport"
  },
  "DTTX": {
    "icao": "DTTX",
    "iata": "SFA",
    "name": "Sfax Thyna International Airport",
    "city": "Sfax",
    "country": "TN",
    "lat": 34.71799850463867,
    "lon": 10.690999984741211,
    "elevation": 85,
    "type": "medium_airport"
  },
  "DTTZ": {
    "icao": "DTTZ",
    "iata": "TOE",
    "name": "Tozeur Nefta International Airport",
    "city": "Tozeur",
    "country": "TN",
    "lat": 33.939701080322266,
    "lon": 8.110560417175293,
    "elevation": 287,
    "type": "medium_airport"
  },
  "DXXX": {
    "icao": "DXXX",
    "iata": "LFW",
    "name": "Lomé–Tokoin International Airport",
    "city": "Lomé",
    "country": "TG",
    "lat": 6.16561,
    "lon": 1.25451,
    "elevation": 72,
    "type": "medium_airport"
  },
  "EBAW": {
    "icao": "EBAW",
    "iata": "ANR",
    "name": "Antwerp International Airport (Deurne)",
    "city": "Antwerp",
    "country": "BE",
    "lat": 51.190667,
    "lon": 4.463153,
    "elevation": 39,
    "type": "medium_airport"
  },
  "EBBR": {
    "icao": "EBBR",
    "iata": "BRU",
    "name": "Brussels Airport",
    "city": "Zaventem",
    "country": "BE",
    "lat": 50.901402,
    "lon": 4.48444,
    "elevation": 175,
    "type": "large_airport"
  },
  "EBCI": {
    "icao": "EBCI",
    "iata": "CRL",
    "name": "Brussels South Charleroi Airport",
    "city": "Charleroi",
    "country": "BE",
    "lat": 50.460982,
    "lon": 4.457158,
    "elevation": 614,
    "type": "medium_airport"
  },
  "EBLG": {
    "icao": "EBLG",
    "iata": "LGG",
    "name": "Liège Airport",
    "city": "Grâce-Hollogne",
    "country": "BE",
    "lat": 50.638574,
    "lon": 5.443897,
    "elevation": 659,
    "type": "medium_airport"
  },
  "EBOS": {
    "icao": "EBOS",
    "iata": "OST",
    "name": "Oostende-Brugge International Airport",
    "city": "Oostende",
    "country": "BE",
    "lat": 51.1998,
    "lon": 2.874673,
    "elevation": 13,
    "type": "medium_airport"
  },
  "EDAH": {
    "icao": "EDAH",
    "iata": "HDF",
    "name": "Heringsdorf Airport",
    "city": "Zirchow",
    "country": "DE",
    "lat": 53.8787,
    "lon": 14.1523,
    "elevation": 94,
    "type": "medium_airport"
  },
  "EDDB": {
    "icao": "EDDB",
    "iata": "BER",
    "name": "Berlin Brandenburg Airport",
    "city": "Berlin",
    "country": "DE",
    "lat": 52.362247,
    "lon": 13.500672,
    "elevation": 157,
    "type": "large_airport"
  },
  "EDDC": {
    "icao": "EDDC",
    "iata": "DRS",
    "name": "Dresden Airport",
    "city": "Dresden",
    "country": "DE",
    "lat": 51.134123,
    "lon": 13.767831,
    "elevation": 755,
    "type": "medium_airport"
  },
  "EDDE": {
    "icao": "EDDE",
    "iata": "ERF",
    "name": "Erfurt-Weimar Airport",
    "city": "Erfurt",
    "country": "DE",
    "lat": 50.979801,
    "lon": 10.9581,
    "elevation": 1036,
    "type": "medium_airport"
  },
  "EDDF": {
    "icao": "EDDF",
    "iata": "FRA",
    "name": "Frankfurt Airport",
    "city": "Frankfurt am Main",
    "country": "DE",
    "lat": 50.030241,
    "lon": 8.561096,
    "elevation": 364,
    "type": "large_airport"
  },
  "EDDG": {
    "icao": "EDDG",
    "iata": "FMO",
    "name": "Münster Osnabrück Airport",
    "city": "Greven",
    "country": "DE",
    "lat": 52.134602,
    "lon": 7.68483,
    "elevation": 160,
    "type": "medium_airport"
  },
  "EDDH": {
    "icao": "EDDH",
    "iata": "HAM",
    "name": "Hamburg Helmut Schmidt Airport",
    "city": "Hamburg",
    "country": "DE",
    "lat": 53.630402,
    "lon": 9.98823,
    "elevation": 53,
    "type": "large_airport"
  },
  "EDDK": {
    "icao": "EDDK",
    "iata": "CGN",
    "name": "Cologne Bonn Airport",
    "city": "Köln (Cologne)",
    "country": "DE",
    "lat": 50.865898,
    "lon": 7.14274,
    "elevation": 302,
    "type": "large_airport"
  },
  "EDDL": {
    "icao": "EDDL",
    "iata": "DUS",
    "name": "Düsseldorf Airport",
    "city": "Düsseldorf",
    "country": "DE",
    "lat": 51.289501,
    "lon": 6.76678,
    "elevation": 147,
    "type": "large_airport"
  },
  "EDDM": {
    "icao": "EDDM",
    "iata": "MUC",
    "name": "Munich Airport",
    "city": "Munich",
    "country": "DE",
    "lat": 48.353802,
    "lon": 11.7861,
    "elevation": 1487,
    "type": "large_airport"
  },
  "EDDN": {
    "icao": "EDDN",
    "iata": "NUE",
    "name": "Nuremberg Airport",
    "city": "Nuremberg",
    "country": "DE",
    "lat": 49.498699,
    "lon": 11.078056,
    "elevation": 1046,
    "type": "large_airport"
  },
  "EDDP": {
    "icao": "EDDP",
    "iata": "LEJ",
    "name": "Leipzig/Halle Airport",
    "city": "Schkeuditz",
    "country": "DE",
    "lat": 51.420657,
    "lon": 12.232705,
    "elevation": 465,
    "type": "large_airport"
  },
  "EDDR": {
    "icao": "EDDR",
    "iata": "SCN",
    "name": "Saarbrücken Airport",
    "city": "Saarbrücken",
    "country": "DE",
    "lat": 49.214599609400004,
    "lon": 7.10950994492,
    "elevation": 1058,
    "type": "medium_airport"
  },
  "EDDS": {
    "icao": "EDDS",
    "iata": "STR",
    "name": "Stuttgart Airport",
    "city": "Stuttgart",
    "country": "DE",
    "lat": 48.689899,
    "lon": 9.22196,
    "elevation": 1276,
    "type": "large_airport"
  },
  "EDDV": {
    "icao": "EDDV",
    "iata": "HAJ",
    "name": "Hannover Airport",
    "city": "Hannover",
    "country": "DE",
    "lat": 52.461102,
    "lon": 9.68508,
    "elevation": 183,
    "type": "large_airport"
  },
  "EDDW": {
    "icao": "EDDW",
    "iata": "BRE",
    "name": "Bremen Airport",
    "city": "Bremen",
    "country": "DE",
    "lat": 53.046786,
    "lon": 8.78932,
    "elevation": 14,
    "type": "medium_airport"
  },
  "EDFH": {
    "icao": "EDFH",
    "iata": "HHN",
    "name": "Frankfurt-Hahn Airport",
    "city": "Frankfurt am Main (Lautzenhausen)",
    "country": "DE",
    "lat": 49.9487,
    "lon": 7.26389,
    "elevation": 1649,
    "type": "medium_airport"
  },
  "EDFM": {
    "icao": "EDFM",
    "iata": "MHG",
    "name": "Mannheim-City Airport",
    "city": "Mannheim",
    "country": "DE",
    "lat": 49.473057,
    "lon": 8.514167,
    "elevation": 308,
    "type": "medium_airport"
  },
  "EDHL": {
    "icao": "EDHL",
    "iata": "LBC",
    "name": "Lübeck Blankensee Airport",
    "city": "Lübeck",
    "country": "DE",
    "lat": 53.805401,
    "lon": 10.7192,
    "elevation": 53,
    "type": "medium_airport"
  },
  "EDJA": {
    "icao": "EDJA",
    "iata": "FMM",
    "name": "Memmingen Allgau Airport",
    "city": "Memmingen",
    "country": "DE",
    "lat": 47.988800048799995,
    "lon": 10.2395000458,
    "elevation": 2077,
    "type": "medium_airport"
  },
  "EDLP": {
    "icao": "EDLP",
    "iata": "PAD",
    "name": "Paderborn Lippstadt Airport",
    "city": "Büren",
    "country": "DE",
    "lat": 51.614101,
    "lon": 8.61632,
    "elevation": 699,
    "type": "medium_airport"
  },
  "EDLV": {
    "icao": "EDLV",
    "iata": "NRN",
    "name": "Weeze Airport",
    "city": "Weeze",
    "country": "DE",
    "lat": 51.6024017334,
    "lon": 6.14216995239,
    "elevation": 106,
    "type": "medium_airport"
  },
  "EDLW": {
    "icao": "EDLW",
    "iata": "DTM",
    "name": "Dortmund Airport",
    "city": "Dortmund",
    "country": "DE",
    "lat": 51.518299,
    "lon": 7.61224,
    "elevation": 425,
    "type": "medium_airport"
  },
  "EDNY": {
    "icao": "EDNY",
    "iata": "FDH",
    "name": "Friedrichshafen Airport",
    "city": "Friedrichshafen",
    "country": "DE",
    "lat": 47.671299,
    "lon": 9.51149,
    "elevation": 1367,
    "type": "medium_airport"
  },
  "EDSB": {
    "icao": "EDSB",
    "iata": "FKB",
    "name": "Karlsruhe Baden-Baden Airport",
    "city": "Rheinmünster",
    "country": "DE",
    "lat": 48.7794,
    "lon": 8.0805,
    "elevation": 408,
    "type": "medium_airport"
  },
  "EDVK": {
    "icao": "EDVK",
    "iata": "KSF",
    "name": "Kassel Airport",
    "city": "Calden",
    "country": "DE",
    "lat": 51.420699,
    "lon": 9.392152,
    "elevation": 820,
    "type": "medium_airport"
  },
  "EDXW": {
    "icao": "EDXW",
    "iata": "GWT",
    "name": "Westerland Sylt Airport",
    "city": "Sylt",
    "country": "DE",
    "lat": 54.9132,
    "lon": 8.34047,
    "elevation": 51,
    "type": "medium_airport"
  },
  "EEKA": {
    "icao": "EEKA",
    "iata": "KDL",
    "name": "Kärdla Airport",
    "city": "Kärdla",
    "country": "EE",
    "lat": 58.99079895019531,
    "lon": 22.830699920654297,
    "elevation": 18,
    "type": "medium_airport"
  },
  "EEKE": {
    "icao": "EEKE",
    "iata": "URE",
    "name": "Kuressaare Airport",
    "city": "Kuressaare",
    "country": "EE",
    "lat": 58.22990036010742,
    "lon": 22.50950050354004,
    "elevation": 14,
    "type": "medium_airport"
  },
  "EEPU": {
    "icao": "EEPU",
    "iata": "EPU",
    "name": "Pärnu Airport",
    "city": "Pärnu",
    "country": "EE",
    "lat": 58.41899871826172,
    "lon": 24.47279930114746,
    "elevation": 47,
    "type": "medium_airport"
  },
  "EETN": {
    "icao": "EETN",
    "iata": "TLL",
    "name": "Lennart Meri Tallinn Airport",
    "city": "Tallinn",
    "country": "EE",
    "lat": 59.413246,
    "lon": 24.83264,
    "elevation": 131,
    "type": "large_airport"
  },
  "EETU": {
    "icao": "EETU",
    "iata": "TAY",
    "name": "Tartu Airport",
    "city": "Reola",
    "country": "EE",
    "lat": 58.307438,
    "lon": 26.686473,
    "elevation": 220,
    "type": "medium_airport"
  },
  "EFET": {
    "icao": "EFET",
    "iata": "ENF",
    "name": "Enontekio Airport",
    "city": "Enontekio",
    "country": "FI",
    "lat": 68.362602233887,
    "lon": 23.424299240112,
    "elevation": 1005,
    "type": "medium_airport"
  },
  "EFHK": {
    "icao": "EFHK",
    "iata": "HEL",
    "name": "Helsinki Vantaa Airport",
    "city": "Helsinki (Vantaa)",
    "country": "FI",
    "lat": 60.318363,
    "lon": 24.963341,
    "elevation": 179,
    "type": "large_airport"
  },
  "EFIV": {
    "icao": "EFIV",
    "iata": "IVL",
    "name": "Ivalo Airport",
    "city": "Ivalo",
    "country": "FI",
    "lat": 68.607299804688,
    "lon": 27.405300140381,
    "elevation": 481,
    "type": "medium_airport"
  },
  "EFJO": {
    "icao": "EFJO",
    "iata": "JOE",
    "name": "Joensuu Airport",
    "city": "Joensuu",
    "country": "FI",
    "lat": 62.658815,
    "lon": 29.619398,
    "elevation": 398,
    "type": "medium_airport"
  },
  "EFJY": {
    "icao": "EFJY",
    "iata": "JYV",
    "name": "Jyväskylä Airport",
    "city": "Jyväskylän Maalaiskunta",
    "country": "FI",
    "lat": 62.399502,
    "lon": 25.678301,
    "elevation": 459,
    "type": "medium_airport"
  },
  "EFKE": {
    "icao": "EFKE",
    "iata": "KEM",
    "name": "Kemi-Tornio Airport",
    "city": "Kemi / Tornio",
    "country": "FI",
    "lat": 65.778701782227,
    "lon": 24.582099914551,
    "elevation": 61,
    "type": "medium_airport"
  },
  "EFKI": {
    "icao": "EFKI",
    "iata": "KAJ",
    "name": "Kajaani Airport",
    "city": "Kajaani",
    "country": "FI",
    "lat": 64.2855,
    "lon": 27.6924,
    "elevation": 483,
    "type": "medium_airport"
  },
  "EFKK": {
    "icao": "EFKK",
    "iata": "KOK",
    "name": "Kokkola-Pietarsaari Airport",
    "city": "Kokkola / Kruunupyy",
    "country": "FI",
    "lat": 63.721199,
    "lon": 23.143101,
    "elevation": 84,
    "type": "medium_airport"
  },
  "EFKS": {
    "icao": "EFKS",
    "iata": "KAO",
    "name": "Kuusamo Airport",
    "city": "Kuusamo",
    "country": "FI",
    "lat": 65.987602,
    "lon": 29.239401,
    "elevation": 866,
    "type": "medium_airport"
  },
  "EFKT": {
    "icao": "EFKT",
    "iata": "KTT",
    "name": "Kittilä Airport",
    "city": "Kittilä",
    "country": "FI",
    "lat": 67.700996398926,
    "lon": 24.846799850464,
    "elevation": 644,
    "type": "medium_airport"
  },
  "EFKU": {
    "icao": "EFKU",
    "iata": "KUO",
    "name": "Kuopio Airport",
    "city": "Kuopio / Siilinjärvi",
    "country": "FI",
    "lat": 63.007099,
    "lon": 27.7978,
    "elevation": 323,
    "type": "medium_airport"
  },
  "EFLP": {
    "icao": "EFLP",
    "iata": "LPP",
    "name": "Lappeenranta Airport",
    "city": "Lappeenranta",
    "country": "FI",
    "lat": 61.044601,
    "lon": 28.144743,
    "elevation": 349,
    "type": "medium_airport"
  },
  "EFMA": {
    "icao": "EFMA",
    "iata": "MHQ",
    "name": "Mariehamn Airport",
    "city": "Mariehamn",
    "country": "FI",
    "lat": 60.1222,
    "lon": 19.898199,
    "elevation": 17,
    "type": "medium_airport"
  },
  "EFOU": {
    "icao": "EFOU",
    "iata": "OUL",
    "name": "Oulu Airport",
    "city": "Oulu / Oulunsalo",
    "country": "FI",
    "lat": 64.930099,
    "lon": 25.354601,
    "elevation": 47,
    "type": "medium_airport"
  },
  "EFPO": {
    "icao": "EFPO",
    "iata": "POR",
    "name": "Pori Airport",
    "city": "Pori",
    "country": "FI",
    "lat": 61.4617,
    "lon": 21.799999,
    "elevation": 44,
    "type": "medium_airport"
  },
  "EFRO": {
    "icao": "EFRO",
    "iata": "RVN",
    "name": "Rovaniemi Airport",
    "city": "Rovaniemi",
    "country": "FI",
    "lat": 66.564796447754,
    "lon": 25.830400466919,
    "elevation": 642,
    "type": "medium_airport"
  },
  "EFSA": {
    "icao": "EFSA",
    "iata": "SVL",
    "name": "Savonlinna Airport",
    "city": "Savonlinna",
    "country": "FI",
    "lat": 61.9431,
    "lon": 28.945101,
    "elevation": 311,
    "type": "medium_airport"
  },
  "EFTP": {
    "icao": "EFTP",
    "iata": "TMP",
    "name": "Tampere-Pirkkala Airport",
    "city": "Tampere / Pirkkala",
    "country": "FI",
    "lat": 61.414101,
    "lon": 23.604401,
    "elevation": 390,
    "type": "medium_airport"
  },
  "EFTU": {
    "icao": "EFTU",
    "iata": "TKU",
    "name": "Turku Airport",
    "city": "Turku",
    "country": "FI",
    "lat": 60.514099,
    "lon": 22.2628,
    "elevation": 161,
    "type": "medium_airport"
  },
  "EFVA": {
    "icao": "EFVA",
    "iata": "VAA",
    "name": "Vaasa Airport",
    "city": "Vaasa",
    "country": "FI",
    "lat": 63.050701,
    "lon": 21.762199,
    "elevation": 19,
    "type": "medium_airport"
  },
  "EGAA": {
    "icao": "EGAA",
    "iata": "BFS",
    "name": "Belfast International Airport",
    "city": "Belfast",
    "country": "GB",
    "lat": 54.6575012207,
    "lon": -6.2158298492399995,
    "elevation": 268,
    "type": "large_airport"
  },
  "EGAC": {
    "icao": "EGAC",
    "iata": "BHD",
    "name": "George Best Belfast City Airport",
    "city": "Belfast",
    "country": "GB",
    "lat": 54.618099,
    "lon": -5.8725,
    "elevation": 15,
    "type": "medium_airport"
  },
  "EGAE": {
    "icao": "EGAE",
    "iata": "LDY",
    "name": "City of Derry Airport",
    "city": "Derry",
    "country": "GB",
    "lat": 55.04280090332031,
    "lon": -7.161109924316406,
    "elevation": 22,
    "type": "medium_airport"
  },
  "EGBB": {
    "icao": "EGBB",
    "iata": "BHX",
    "name": "Birmingham Airport",
    "city": "Birmingham, West Midlands",
    "country": "GB",
    "lat": 52.453899,
    "lon": -1.74803,
    "elevation": 327,
    "type": "large_airport"
  },
  "EGCC": {
    "icao": "EGCC",
    "iata": "MAN",
    "name": "Manchester Airport",
    "city": "Manchester, Greater Manchester",
    "country": "GB",
    "lat": 53.349375,
    "lon": -2.279521,
    "elevation": 257,
    "type": "large_airport"
  },
  "EGEC": {
    "icao": "EGEC",
    "iata": "CAL",
    "name": "Campbeltown Airport",
    "city": "Campbeltown",
    "country": "GB",
    "lat": 55.437198638916016,
    "lon": -5.686389923095703,
    "elevation": 42,
    "type": "medium_airport"
  },
  "EGED": {
    "icao": "EGED",
    "iata": "EOI",
    "name": "Eday Airport",
    "city": "Eday",
    "country": "GB",
    "lat": 59.19060134887695,
    "lon": -2.7722198963165283,
    "elevation": 10,
    "type": "medium_airport"
  },
  "EGFF": {
    "icao": "EGFF",
    "iata": "CWL",
    "name": "Cardiff International Airport",
    "city": "Cardiff",
    "country": "GB",
    "lat": 51.396702,
    "lon": -3.34333,
    "elevation": 220,
    "type": "medium_airport"
  },
  "EGGD": {
    "icao": "EGGD",
    "iata": "BRS",
    "name": "Bristol Airport",
    "city": "Bristol",
    "country": "GB",
    "lat": 51.382702,
    "lon": -2.71909,
    "elevation": 622,
    "type": "medium_airport"
  },
  "EGGP": {
    "icao": "EGGP",
    "iata": "LPL",
    "name": "Liverpool John Lennon Airport",
    "city": "Liverpool",
    "country": "GB",
    "lat": 53.333599,
    "lon": -2.84972,
    "elevation": 80,
    "type": "medium_airport"
  },
  "EGGW": {
    "icao": "EGGW",
    "iata": "LTN",
    "name": "London Luton Airport",
    "city": "Luton, Bedfordshire",
    "country": "GB",
    "lat": 51.874699,
    "lon": -0.368333,
    "elevation": 526,
    "type": "large_airport"
  },
  "EGHH": {
    "icao": "EGHH",
    "iata": "BOH",
    "name": "Bournemouth Airport",
    "city": "Bournemouth",
    "country": "GB",
    "lat": 50.780483,
    "lon": -1.839576,
    "elevation": 38,
    "type": "medium_airport"
  },
  "EGHI": {
    "icao": "EGHI",
    "iata": "SOU",
    "name": "Southampton Airport",
    "city": "Southampton",
    "country": "GB",
    "lat": 50.950298,
    "lon": -1.3568,
    "elevation": 44,
    "type": "medium_airport"
  },
  "EGHQ": {
    "icao": "EGHQ",
    "iata": "NQY",
    "name": "Cornwall Airport Newquay",
    "city": "Newquay",
    "country": "GB",
    "lat": 50.440601,
    "lon": -4.99541,
    "elevation": 390,
    "type": "medium_airport"
  },
  "EGJA": {
    "icao": "EGJA",
    "iata": "ACI",
    "name": "Alderney Airport",
    "city": "Saint Anne",
    "country": "GG",
    "lat": 49.706104,
    "lon": -2.21472,
    "elevation": 290,
    "type": "medium_airport"
  },
  "EGJB": {
    "icao": "EGJB",
    "iata": "GCI",
    "name": "Guernsey Airport",
    "city": "Saint Peter Port",
    "country": "GG",
    "lat": 49.435001,
    "lon": -2.60197,
    "elevation": 336,
    "type": "medium_airport"
  },
  "EGJJ": {
    "icao": "EGJJ",
    "iata": "JER",
    "name": "Jersey Airport",
    "city": "St. Peter",
    "country": "JE",
    "lat": 49.207901,
    "lon": -2.19551,
    "elevation": 277,
    "type": "medium_airport"
  },
  "EGKK": {
    "icao": "EGKK",
    "iata": "LGW",
    "name": "London Gatwick Airport",
    "city": "London",
    "country": "GB",
    "lat": 51.148771,
    "lon": -0.192089,
    "elevation": 202,
    "type": "large_airport"
  },
  "EGLC": {
    "icao": "EGLC",
    "iata": "LCY",
    "name": "London City Airport",
    "city": "London",
    "country": "GB",
    "lat": 51.505299,
    "lon": 0.055278,
    "elevation": 19,
    "type": "medium_airport"
  },
  "EGLL": {
    "icao": "EGLL",
    "iata": "LHR",
    "name": "London Heathrow Airport",
    "city": "London",
    "country": "GB",
    "lat": 51.4706,
    "lon": -0.461941,
    "elevation": 83,
    "type": "large_airport"
  },
  "EGMC": {
    "icao": "EGMC",
    "iata": "SEN",
    "name": "London Southend Airport",
    "city": "Southend-on-Sea, Essex",
    "country": "GB",
    "lat": 51.570562,
    "lon": 0.693627,
    "elevation": 49,
    "type": "medium_airport"
  },
  "EGNJ": {
    "icao": "EGNJ",
    "iata": "HUY",
    "name": "Humberside Airport",
    "city": "Grimsby, Lincolnshire",
    "country": "GB",
    "lat": 53.576152,
    "lon": -0.34954,
    "elevation": 121,
    "type": "medium_airport"
  },
  "EGNM": {
    "icao": "EGNM",
    "iata": "LBA",
    "name": "Leeds Bradford Airport",
    "city": "Leeds, West Yorkshire",
    "country": "GB",
    "lat": 53.865898,
    "lon": -1.66057,
    "elevation": 681,
    "type": "medium_airport"
  },
  "EGNS": {
    "icao": "EGNS",
    "iata": "IOM",
    "name": "Isle of Man Airport",
    "city": "Castletown",
    "country": "IM",
    "lat": 54.083302,
    "lon": -4.62389,
    "elevation": 52,
    "type": "medium_airport"
  },
  "EGNT": {
    "icao": "EGNT",
    "iata": "NCL",
    "name": "Newcastle International Airport",
    "city": "Newcastle upon Tyne, Tyne and Wear",
    "country": "GB",
    "lat": 55.037958,
    "lon": -1.689577,
    "elevation": 266,
    "type": "medium_airport"
  },
  "EGNV": {
    "icao": "EGNV",
    "iata": "MME",
    "name": "Teesside International Airport",
    "city": "Darlington, Durham",
    "country": "GB",
    "lat": 54.509201,
    "lon": -1.42941,
    "elevation": 120,
    "type": "medium_airport"
  },
  "EGNX": {
    "icao": "EGNX",
    "iata": "EMA",
    "name": "East Midlands Airport",
    "city": "Nottingham",
    "country": "GB",
    "lat": 52.8311,
    "lon": -1.32806,
    "elevation": 306,
    "type": "medium_airport"
  },
  "EGPA": {
    "icao": "EGPA",
    "iata": "KOI",
    "name": "Kirkwall Airport",
    "city": "Orkney Islands",
    "country": "GB",
    "lat": 58.957801818847656,
    "lon": -2.9049999713897705,
    "elevation": 50,
    "type": "medium_airport"
  },
  "EGPB": {
    "icao": "EGPB",
    "iata": "LSI",
    "name": "Sumburgh Airport",
    "city": "Lerwick, Shetland",
    "country": "GB",
    "lat": 59.878899,
    "lon": -1.29556,
    "elevation": 20,
    "type": "medium_airport"
  },
  "EGPC": {
    "icao": "EGPC",
    "iata": "WIC",
    "name": "Wick John O'Groats Airport",
    "city": "Wick",
    "country": "GB",
    "lat": 58.4589,
    "lon": -3.09306,
    "elevation": 126,
    "type": "medium_airport"
  },
  "EGPD": {
    "icao": "EGPD",
    "iata": "ABZ",
    "name": "Aberdeen International Airport",
    "city": "Aberdeen",
    "country": "GB",
    "lat": 57.2019,
    "lon": -2.19778,
    "elevation": 215,
    "type": "medium_airport"
  },
  "EGPE": {
    "icao": "EGPE",
    "iata": "INV",
    "name": "Inverness Airport",
    "city": "Inverness",
    "country": "GB",
    "lat": 57.54249954223633,
    "lon": -4.047500133514404,
    "elevation": 31,
    "type": "medium_airport"
  },
  "EGPF": {
    "icao": "EGPF",
    "iata": "GLA",
    "name": "Glasgow Airport",
    "city": "Glasgow",
    "country": "GB",
    "lat": 55.871899,
    "lon": -4.43306,
    "elevation": 26,
    "type": "large_airport"
  },
  "EGPH": {
    "icao": "EGPH",
    "iata": "EDI",
    "name": "Edinburgh Airport",
    "city": "Edinburgh",
    "country": "GB",
    "lat": 55.950145,
    "lon": -3.372288,
    "elevation": 135,
    "type": "large_airport"
  },
  "EGPI": {
    "icao": "EGPI",
    "iata": "ILY",
    "name": "Islay Airport",
    "city": "Isle of Islay, Argyll and Bute",
    "country": "GB",
    "lat": 55.682708,
    "lon": -6.257525,
    "elevation": 56,
    "type": "medium_airport"
  },
  "EGPK": {
    "icao": "EGPK",
    "iata": "PIK",
    "name": "Glasgow Prestwick Airport",
    "city": "Prestwick, South Ayrshire",
    "country": "GB",
    "lat": 55.502003,
    "lon": -4.587019,
    "elevation": 65,
    "type": "medium_airport"
  },
  "EGPL": {
    "icao": "EGPL",
    "iata": "BEB",
    "name": "Benbecula Airport",
    "city": "Balivanich",
    "country": "GB",
    "lat": 57.48109817504883,
    "lon": -7.3627800941467285,
    "elevation": 19,
    "type": "medium_airport"
  },
  "EGPN": {
    "icao": "EGPN",
    "iata": "DND",
    "name": "Dundee Airport",
    "city": "Dundee",
    "country": "GB",
    "lat": 56.45249938964844,
    "lon": -3.025830030441284,
    "elevation": 17,
    "type": "medium_airport"
  },
  "EGPO": {
    "icao": "EGPO",
    "iata": "SYY",
    "name": "Stornoway Airport",
    "city": "Stornoway, Western Isles",
    "country": "GB",
    "lat": 58.215599,
    "lon": -6.33111,
    "elevation": 26,
    "type": "medium_airport"
  },
  "EGPR": {
    "icao": "EGPR",
    "iata": "BRR",
    "name": "Barra Airport",
    "city": "Eoligarry",
    "country": "GB",
    "lat": 57.0228,
    "lon": -7.44306,
    "elevation": 5,
    "type": "medium_airport"
  },
  "EGPU": {
    "icao": "EGPU",
    "iata": "TRE",
    "name": "Tiree Airport",
    "city": "Balemartine",
    "country": "GB",
    "lat": 56.49919891357422,
    "lon": -6.869170188903809,
    "elevation": 38,
    "type": "medium_airport"
  },
  "EGSH": {
    "icao": "EGSH",
    "iata": "NWI",
    "name": "Norwich Airport",
    "city": "Norwich, Norfolk",
    "country": "GB",
    "lat": 52.6758,
    "lon": 1.28278,
    "elevation": 117,
    "type": "medium_airport"
  },
  "EGSS": {
    "icao": "EGSS",
    "iata": "STN",
    "name": "London Stansted Airport",
    "city": "London",
    "country": "GB",
    "lat": 51.884998,
    "lon": 0.235,
    "elevation": 348,
    "type": "large_airport"
  },
  "EGTE": {
    "icao": "EGTE",
    "iata": "EXT",
    "name": "Exeter International Airport",
    "city": "Exeter, Devon",
    "country": "GB",
    "lat": 50.734261,
    "lon": -3.413984,
    "elevation": 102,
    "type": "medium_airport"
  },
  "EGYP": {
    "icao": "EGYP",
    "iata": "MPN",
    "name": "Mount Pleasant Airport",
    "city": "Mount Pleasant",
    "country": "FK",
    "lat": -51.82279968261719,
    "lon": -58.447200775146484,
    "elevation": 244,
    "type": "medium_airport"
  },
  "EHAM": {
    "icao": "EHAM",
    "iata": "AMS",
    "name": "Amsterdam Airport Schiphol",
    "city": "Amsterdam",
    "country": "NL",
    "lat": 52.308601,
    "lon": 4.76389,
    "elevation": -11,
    "type": "large_airport"
  },
  "EHBK": {
    "icao": "EHBK",
    "iata": "MST",
    "name": "Maastricht Aachen Airport",
    "city": "Maastricht",
    "country": "NL",
    "lat": 50.911701,
    "lon": 5.77014,
    "elevation": 375,
    "type": "medium_airport"
  },
  "EHEH": {
    "icao": "EHEH",
    "iata": "EIN",
    "name": "Eindhoven Airport",
    "city": "Eindhoven",
    "country": "NL",
    "lat": 51.4500999451,
    "lon": 5.37452983856,
    "elevation": 74,
    "type": "large_airport"
  },
  "EHGG": {
    "icao": "EHGG",
    "iata": "GRQ",
    "name": "Groningen Airport Eelde",
    "city": "Groningen",
    "country": "NL",
    "lat": 53.119701,
    "lon": 6.57944,
    "elevation": 17,
    "type": "medium_airport"
  },
  "EHRD": {
    "icao": "EHRD",
    "iata": "RTM",
    "name": "Rotterdam The Hague Airport",
    "city": "Rotterdam",
    "country": "NL",
    "lat": 51.956902,
    "lon": 4.43722,
    "elevation": -15,
    "type": "medium_airport"
  },
  "EICK": {
    "icao": "EICK",
    "iata": "ORK",
    "name": "Cork Airport",
    "city": "Cork",
    "country": "IE",
    "lat": 51.841301,
    "lon": -8.49111,
    "elevation": 502,
    "type": "medium_airport"
  },
  "EIDL": {
    "icao": "EIDL",
    "iata": "CFN",
    "name": "Donegal Airport",
    "city": "Donegal",
    "country": "IE",
    "lat": 55.0442008972168,
    "lon": -8.340999603271484,
    "elevation": 30,
    "type": "medium_airport"
  },
  "EIDW": {
    "icao": "EIDW",
    "iata": "DUB",
    "name": "Dublin Airport",
    "city": "Dublin",
    "country": "IE",
    "lat": 53.428713,
    "lon": -6.262121,
    "elevation": 242,
    "type": "large_airport"
  },
  "EIKN": {
    "icao": "EIKN",
    "iata": "NOC",
    "name": "Ireland West Knock Airport",
    "city": "Charlestown",
    "country": "IE",
    "lat": 53.910301,
    "lon": -8.81849,
    "elevation": 665,
    "type": "medium_airport"
  },
  "EIKY": {
    "icao": "EIKY",
    "iata": "KIR",
    "name": "Kerry Airport",
    "city": "Farranfore",
    "country": "IE",
    "lat": 52.180901,
    "lon": -9.52378,
    "elevation": 112,
    "type": "medium_airport"
  },
  "EINN": {
    "icao": "EINN",
    "iata": "SNN",
    "name": "Shannon Airport",
    "city": "Shannon",
    "country": "IE",
    "lat": 52.702,
    "lon": -8.92482,
    "elevation": 46,
    "type": "large_airport"
  },
  "EKAH": {
    "icao": "EKAH",
    "iata": "AAR",
    "name": "Aarhus Airport",
    "city": "Aarhus",
    "country": "DK",
    "lat": 56.303331,
    "lon": 10.618286,
    "elevation": 82,
    "type": "medium_airport"
  },
  "EKBI": {
    "icao": "EKBI",
    "iata": "BLL",
    "name": "Billund Airport",
    "city": "Billund",
    "country": "DK",
    "lat": 55.740335,
    "lon": 9.157019,
    "elevation": 247,
    "type": "large_airport"
  },
  "EKCH": {
    "icao": "EKCH",
    "iata": "CPH",
    "name": "Copenhagen Kastrup Airport",
    "city": "Copenhagen",
    "country": "DK",
    "lat": 55.617900848389,
    "lon": 12.656000137329,
    "elevation": 17,
    "type": "large_airport"
  },
  "EKEB": {
    "icao": "EKEB",
    "iata": "EBJ",
    "name": "Esbjerg Airport",
    "city": "Esbjerg",
    "country": "DK",
    "lat": 55.525902,
    "lon": 8.5534,
    "elevation": 97,
    "type": "medium_airport"
  },
  "EKKA": {
    "icao": "EKKA",
    "iata": "KRP",
    "name": "Midtjyllands Airport / Air Base Karup",
    "city": "Karup",
    "country": "DK",
    "lat": 56.297139,
    "lon": 9.104311,
    "elevation": 170,
    "type": "medium_airport"
  },
  "EKOD": {
    "icao": "EKOD",
    "iata": "ODE",
    "name": "Odense Hans Christian Andersen Airport",
    "city": "Odense",
    "country": "DK",
    "lat": 55.475307,
    "lon": 10.327206,
    "elevation": 56,
    "type": "medium_airport"
  },
  "EKRK": {
    "icao": "EKRK",
    "iata": "RKE",
    "name": "Copenhagen Roskilde Airport",
    "city": "Roskilde",
    "country": "DK",
    "lat": 55.585602,
    "lon": 12.1314,
    "elevation": 146,
    "type": "medium_airport"
  },
  "EKRN": {
    "icao": "EKRN",
    "iata": "RNN",
    "name": "Bornholm Airport",
    "city": "Rønne",
    "country": "DK",
    "lat": 55.063301,
    "lon": 14.7596,
    "elevation": 52,
    "type": "medium_airport"
  },
  "EKSB": {
    "icao": "EKSB",
    "iata": "SGD",
    "name": "Sønderborg Airport",
    "city": "Sønderborg",
    "country": "DK",
    "lat": 54.96440124511719,
    "lon": 9.791729927062988,
    "elevation": 24,
    "type": "medium_airport"
  },
  "EKVG": {
    "icao": "EKVG",
    "iata": "FAE",
    "name": "Vágar Airport",
    "city": "Vágar",
    "country": "FO",
    "lat": 62.063256,
    "lon": -7.275782,
    "elevation": 280,
    "type": "medium_airport"
  },
  "EKYT": {
    "icao": "EKYT",
    "iata": "AAL",
    "name": "Aalborg Airport",
    "city": "Aalborg",
    "country": "DK",
    "lat": 57.094763,
    "lon": 9.84993,
    "elevation": 10,
    "type": "medium_airport"
  },
  "ELLX": {
    "icao": "ELLX",
    "iata": "LUX",
    "name": "Luxembourg-Findel International Airport",
    "city": "Luxembourg",
    "country": "LU",
    "lat": 49.6233333,
    "lon": 6.2044444,
    "elevation": 1234,
    "type": "large_airport"
  },
  "ENAL": {
    "icao": "ENAL",
    "iata": "AES",
    "name": "Ålesund Airport, Vigra",
    "city": "Ålesund",
    "country": "NO",
    "lat": 62.5625,
    "lon": 6.1197,
    "elevation": 69,
    "type": "medium_airport"
  },
  "ENAN": {
    "icao": "ENAN",
    "iata": "ANX",
    "name": "Andøya Airport, Andenes",
    "city": "Andenes",
    "country": "NO",
    "lat": 69.292503,
    "lon": 16.144199,
    "elevation": 43,
    "type": "medium_airport"
  },
  "ENAT": {
    "icao": "ENAT",
    "iata": "ALF",
    "name": "Alta Airport",
    "city": "Alta",
    "country": "NO",
    "lat": 69.976097,
    "lon": 23.3717,
    "elevation": 9,
    "type": "medium_airport"
  },
  "ENBN": {
    "icao": "ENBN",
    "iata": "BNN",
    "name": "Brønnøysund Airport, Brønnøy",
    "city": "Brønnøy",
    "country": "NO",
    "lat": 65.461098,
    "lon": 12.2175,
    "elevation": 25,
    "type": "medium_airport"
  },
  "ENBO": {
    "icao": "ENBO",
    "iata": "BOO",
    "name": "Bodø Airport",
    "city": "Bodø",
    "country": "NO",
    "lat": 67.269203,
    "lon": 14.3653,
    "elevation": 42,
    "type": "medium_airport"
  },
  "ENBR": {
    "icao": "ENBR",
    "iata": "BGO",
    "name": "Bergen Airport, Flesland",
    "city": "Bergen",
    "country": "NO",
    "lat": 60.2934,
    "lon": 5.21814,
    "elevation": 170,
    "type": "large_airport"
  },
  "ENBS": {
    "icao": "ENBS",
    "iata": "BJF",
    "name": "Båtsfjord Airport",
    "city": "Båtsfjord",
    "country": "NO",
    "lat": 70.60025,
    "lon": 29.692612,
    "elevation": 490,
    "type": "medium_airport"
  },
  "ENBV": {
    "icao": "ENBV",
    "iata": "BVG",
    "name": "Berlevåg Airport",
    "city": "Berlevåg",
    "country": "NO",
    "lat": 70.871517,
    "lon": 29.034097,
    "elevation": 42,
    "type": "medium_airport"
  },
  "ENCN": {
    "icao": "ENCN",
    "iata": "KRS",
    "name": "Kristiansand Airport, Kjevik",
    "city": "Kjevik",
    "country": "NO",
    "lat": 58.204201,
    "lon": 8.08537,
    "elevation": 57,
    "type": "medium_airport"
  },
  "ENDU": {
    "icao": "ENDU",
    "iata": "BDU",
    "name": "Bardufoss Airport",
    "city": "Målselv",
    "country": "NO",
    "lat": 69.055801,
    "lon": 18.5404,
    "elevation": 252,
    "type": "medium_airport"
  },
  "ENEV": {
    "icao": "ENEV",
    "iata": "EVE",
    "name": "Harstad/Narvik Airport, Evenes",
    "city": "Evenes",
    "country": "NO",
    "lat": 68.491302490234,
    "lon": 16.678100585938,
    "elevation": 84,
    "type": "medium_airport"
  },
  "ENFL": {
    "icao": "ENFL",
    "iata": "FRO",
    "name": "Florø Airport",
    "city": "Florø",
    "country": "NO",
    "lat": 61.583599090576,
    "lon": 5.0247201919556,
    "elevation": 37,
    "type": "medium_airport"
  },
  "ENGM": {
    "icao": "ENGM",
    "iata": "OSL",
    "name": "Oslo Airport, Gardermoen",
    "city": "Oslo (Gardermoen)",
    "country": "NO",
    "lat": 60.193901,
    "lon": 11.1004,
    "elevation": 681,
    "type": "large_airport"
  },
  "ENHD": {
    "icao": "ENHD",
    "iata": "HAU",
    "name": "Haugesund Airport, Karmøy",
    "city": "Karmøy",
    "country": "NO",
    "lat": 59.345299,
    "lon": 5.20836,
    "elevation": 86,
    "type": "medium_airport"
  },
  "ENHF": {
    "icao": "ENHF",
    "iata": "HFT",
    "name": "Hammerfest Airport",
    "city": "Hammerfest",
    "country": "NO",
    "lat": 70.679703,
    "lon": 23.6686,
    "elevation": 266,
    "type": "medium_airport"
  },
  "ENHV": {
    "icao": "ENHV",
    "iata": "HVG",
    "name": "Honningsvåg Airport, Valan",
    "city": "Honningsvåg",
    "country": "NO",
    "lat": 71.009697,
    "lon": 25.983601,
    "elevation": 44,
    "type": "medium_airport"
  },
  "ENKB": {
    "icao": "ENKB",
    "iata": "KSU",
    "name": "Kristiansund Airport, Kvernberget",
    "city": "Kvernberget",
    "country": "NO",
    "lat": 63.111801,
    "lon": 7.82452,
    "elevation": 204,
    "type": "medium_airport"
  },
  "ENKR": {
    "icao": "ENKR",
    "iata": "KKN",
    "name": "Kirkenes Airport, Høybuktmoen",
    "city": "Kirkenes",
    "country": "NO",
    "lat": 69.7258,
    "lon": 29.8913,
    "elevation": 283,
    "type": "medium_airport"
  },
  "ENLK": {
    "icao": "ENLK",
    "iata": "LKN",
    "name": "Leknes Airport",
    "city": "Leknes",
    "country": "NO",
    "lat": 68.152496337891,
    "lon": 13.609399795532,
    "elevation": 78,
    "type": "medium_airport"
  },
  "ENMH": {
    "icao": "ENMH",
    "iata": "MEH",
    "name": "Mehamn Airport",
    "city": "Mehamn",
    "country": "NO",
    "lat": 71.029701,
    "lon": 27.8267,
    "elevation": 39,
    "type": "medium_airport"
  },
  "ENML": {
    "icao": "ENML",
    "iata": "MOL",
    "name": "Molde Airport, Årø",
    "city": "Årø",
    "country": "NO",
    "lat": 62.744701,
    "lon": 7.2625,
    "elevation": 10,
    "type": "medium_airport"
  },
  "ENMS": {
    "icao": "ENMS",
    "iata": "MJF",
    "name": "Mosjøen Airport, Kjærstad",
    "city": "Mosjøen",
    "country": "NO",
    "lat": 65.783997,
    "lon": 13.2149,
    "elevation": 237,
    "type": "medium_airport"
  },
  "ENNA": {
    "icao": "ENNA",
    "iata": "LKL",
    "name": "Lakselv Airport, Banak",
    "city": "Lakselv",
    "country": "NO",
    "lat": 70.068802,
    "lon": 24.973499,
    "elevation": 25,
    "type": "medium_airport"
  },
  "ENOL": {
    "icao": "ENOL",
    "iata": "OLA",
    "name": "Ørland Airport",
    "city": "Ørland",
    "country": "NO",
    "lat": 63.69889831542969,
    "lon": 9.604000091552734,
    "elevation": 28,
    "type": "medium_airport"
  },
  "ENOV": {
    "icao": "ENOV",
    "iata": "HOV",
    "name": "Ørsta-Volda Airport, Hovden",
    "city": "Ørsta",
    "country": "NO",
    "lat": 62.180000305176,
    "lon": 6.0741000175476,
    "elevation": 243,
    "type": "medium_airport"
  },
  "ENRA": {
    "icao": "ENRA",
    "iata": "MQN",
    "name": "Mo i Rana Airport, Røssvoll",
    "city": "Mo i Rana",
    "country": "NO",
    "lat": 66.363899230957,
    "lon": 14.301400184631,
    "elevation": 229,
    "type": "medium_airport"
  },
  "ENRM": {
    "icao": "ENRM",
    "iata": "RVK",
    "name": "Rørvik Airport, Ryum",
    "city": "Rørvik",
    "country": "NO",
    "lat": 64.838302612305,
    "lon": 11.14610004425,
    "elevation": 14,
    "type": "medium_airport"
  },
  "ENRO": {
    "icao": "ENRO",
    "iata": "RRS",
    "name": "Røros Airport",
    "city": "Røros",
    "country": "NO",
    "lat": 62.578399658203,
    "lon": 11.342300415039,
    "elevation": 2054,
    "type": "medium_airport"
  },